{
"type": "FeatureCollection",
"crs": { "type": "name", "properties": { "name": "urn:ogc:def:crs:OGC:1.3:CRS84" } },
"features": [
{ "type": "Feature", "properties": { "percent(t)": 161.5, "site": "Lost Creek, WY", "date": "2018-06-30T00:00:00" }, "geometry": { "type": "Point", "coordinates": [ -110.6233333, 43.74861111 ] } },
{ "type": "Feature", "properties": { "percent(t)": 110.375, "site": "Bitter Canyon, Castaic", "date": "2018-01-31T00:00:00" }, "geometry": { "type": "Point", "coordinates": [ -118.5944444, 34.51 ] } },
{ "type": "Feature", "properties": { "percent(t)": 107.0, "site": "D10 - Flagstaff Mtn. - Cold", "date": "2018-08-31T00:00:00" }, "geometry": { "type": "Point", "coordinates": [ -105.3383333, 38.97916667 ] } },
{ "type": "Feature", "properties": { "percent(t)": 117.6666667, "site": "Red Feather", "date": "2017-09-30T00:00:00" }, "geometry": { "type": "Point", "coordinates": [ -105.6188889, 40.7625 ] } },
{ "type": "Feature", "properties": { "percent(t)": 74.0, "site": "Los Robles, Thousand Oaks", "date": "2017-01-31T00:00:00" }, "geometry": { "type": "Point", "coordinates": [ -118.8822222, 34.17166667 ] } },
{ "type": "Feature", "properties": { "percent(t)": 204.5, "site": "Mad Ridge Fuel Break", "date": "2018-06-30T00:00:00" }, "geometry": { "type": "Point", "coordinates": [ -123.5005556, 40.42916667 ] } },
{ "type": "Feature", "properties": { "percent(t)": 207.0, "site": "Wells", "date": "2015-06-30T00:00:00" }, "geometry": { "type": "Point", "coordinates": [ -114.9369444, 41.12027778 ] } },
{ "type": "Feature", "properties": { "percent(t)": 93.5, "site": "Great Divide", "date": "2015-07-31T00:00:00" }, "geometry": { "type": "Point", "coordinates": [ -107.8536111, 40.7575 ] } },
{ "type": "Feature", "properties": { "percent(t)": 77.0, "site": "ponderosa", "date": "2017-07-31T00:00:00" }, "geometry": { "type": "Point", "coordinates": [ -121.3852778, 35.99833333 ] } },
{ "type": "Feature", "properties": { "percent(t)": 78.0, "site": "TPEC_Presidio_TX", "date": "2017-07-31T00:00:00" }, "geometry": { "type": "Point", "coordinates": [ -104.4538889, 30.07416667 ] } },
{ "type": "Feature", "properties": { "percent(t)": 147.5, "site": "NETX_Wood_TX", "date": "2017-01-31T00:00:00" }, "geometry": { "type": "Point", "coordinates": [ -95.25194444, 32.76277778 ] } },
{ "type": "Feature", "properties": { "percent(t)": 106.0, "site": "Big Horn", "date": "2018-06-30T00:00:00" }, "geometry": { "type": "Point", "coordinates": [ -106.2052778, 37.02222222 ] } },
{ "type": "Feature", "properties": { "percent(t)": 106.0, "site": "Spar Canyon", "date": "2018-07-31T00:00:00" }, "geometry": { "type": "Point", "coordinates": [ -114.1333333, 44.28333333 ] } },
{ "type": "Feature", "properties": { "percent(t)": 90.0, "site": "CNTX_Hays_TX", "date": "2016-11-30T00:00:00" }, "geometry": { "type": "Point", "coordinates": [ -98.08027778, 29.93444444 ] } },
{ "type": "Feature", "properties": { "percent(t)": 211.0, "site": "Sand Creek Desert", "date": "2017-05-31T00:00:00" }, "geometry": { "type": "Point", "coordinates": [ -111.8077778, 44.12055556 ] } },
{ "type": "Feature", "properties": { "percent(t)": 97.66666667, "site": "CAF Truchas 1", "date": "2016-10-31T00:00:00" }, "geometry": { "type": "Point", "coordinates": [ -105.8072222, 36.06861111 ] } },
{ "type": "Feature", "properties": { "percent(t)": 89.5, "site": "CNTX_Hays_TX", "date": "2017-08-31T00:00:00" }, "geometry": { "type": "Point", "coordinates": [ -98.08027778, 29.93444444 ] } },
{ "type": "Feature", "properties": { "percent(t)": 92.0, "site": "Maple Canyon", "date": "2017-08-31T00:00:00" }, "geometry": { "type": "Point", "coordinates": [ -111.5327778, 40.135 ] } },
{ "type": "Feature", "properties": { "percent(t)": 60.33333333, "site": "Oak Flat", "date": "2016-08-31T00:00:00" }, "geometry": { "type": "Point", "coordinates": [ -118.9108333, 34.47138889 ] } },
{ "type": "Feature", "properties": { "percent(t)": 105.6666667, "site": "Tally Lake North", "date": "2016-08-31T00:00:00" }, "geometry": { "type": "Point", "coordinates": [ -114.6763889, 48.41361111 ] } },
{ "type": "Feature", "properties": { "percent(t)": 148.5, "site": "Pulgas", "date": "2017-07-31T00:00:00" }, "geometry": { "type": "Point", "coordinates": [ -122.3188889, 37.48861111 ] } },
{ "type": "Feature", "properties": { "percent(t)": 67.0, "site": "Cottage", "date": "2016-09-30T00:00:00" }, "geometry": { "type": "Point", "coordinates": [ -120.2283333, 38.345 ] } },
{ "type": "Feature", "properties": { "percent(t)": 82.5, "site": "Great Divide", "date": "2016-08-31T00:00:00" }, "geometry": { "type": "Point", "coordinates": [ -107.8536111, 40.7575 ] } },
{ "type": "Feature", "properties": { "percent(t)": 185.0, "site": "Sand Creek Desert", "date": "2015-06-30T00:00:00" }, "geometry": { "type": "Point", "coordinates": [ -111.8077778, 44.12055556 ] } },
{ "type": "Feature", "properties": { "percent(t)": 69.5, "site": "Oak Flat", "date": "2016-06-30T00:00:00" }, "geometry": { "type": "Point", "coordinates": [ -118.9108333, 34.47138889 ] } },
{ "type": "Feature", "properties": { "percent(t)": 117.0, "site": "Big Thicket National Preserve", "date": "2017-09-30T00:00:00" }, "geometry": { "type": "Point", "coordinates": [ -94.38694444, 30.45861111 ] } },
{ "type": "Feature", "properties": { "percent(t)": 75.0, "site": "Bitter Canyon, Castaic", "date": "2017-12-31T00:00:00" }, "geometry": { "type": "Point", "coordinates": [ -118.5944444, 34.51 ] } },
{ "type": "Feature", "properties": { "percent(t)": 108.0, "site": "D10 - Flagstaff Mtn. - Cold", "date": "2017-10-31T00:00:00" }, "geometry": { "type": "Point", "coordinates": [ -105.3383333, 38.97916667 ] } },
{ "type": "Feature", "properties": { "percent(t)": 110.0, "site": "Pulgas", "date": "2016-10-31T00:00:00" }, "geometry": { "type": "Point", "coordinates": [ -122.3188889, 37.48861111 ] } },
{ "type": "Feature", "properties": { "percent(t)": 88.33333333, "site": "Cottage", "date": "2017-08-31T00:00:00" }, "geometry": { "type": "Point", "coordinates": [ -120.2283333, 38.345 ] } },
{ "type": "Feature", "properties": { "percent(t)": 72.0, "site": "Oak Flat", "date": "2017-07-31T00:00:00" }, "geometry": { "type": "Point", "coordinates": [ -118.9108333, 34.47138889 ] } },
{ "type": "Feature", "properties": { "percent(t)": 96.0, "site": "Ziegler", "date": "2017-09-30T00:00:00" }, "geometry": { "type": "Point", "coordinates": [ -123.5180556, 40.89305556 ] } },
{ "type": "Feature", "properties": { "percent(t)": 121.6666667, "site": "CAF Truchas 1", "date": "2016-08-31T00:00:00" }, "geometry": { "type": "Point", "coordinates": [ -105.8072222, 36.06861111 ] } },
{ "type": "Feature", "properties": { "percent(t)": 85.0, "site": "CNTX_Hays_TX", "date": "2018-01-31T00:00:00" }, "geometry": { "type": "Point", "coordinates": [ -98.08027778, 29.93444444 ] } },
{ "type": "Feature", "properties": { "percent(t)": 90.0, "site": "Maple Canyon", "date": "2017-09-30T00:00:00" }, "geometry": { "type": "Point", "coordinates": [ -111.5327778, 40.135 ] } },
{ "type": "Feature", "properties": { "percent(t)": 58.5, "site": "Glendora Ridge, Glendora", "date": "2015-08-31T00:00:00" }, "geometry": { "type": "Point", "coordinates": [ -117.865, 34.16527778 ] } },
{ "type": "Feature", "properties": { "percent(t)": 279.0, "site": "Sand Creek Desert", "date": "2018-05-31T00:00:00" }, "geometry": { "type": "Point", "coordinates": [ -111.8077778, 44.12055556 ] } },
{ "type": "Feature", "properties": { "percent(t)": 82.5, "site": "CNTX_Hays_TX", "date": "2016-08-31T00:00:00" }, "geometry": { "type": "Point", "coordinates": [ -98.08027778, 29.93444444 ] } },
{ "type": "Feature", "properties": { "percent(t)": 62.0, "site": "Big Horn", "date": "2017-05-31T00:00:00" }, "geometry": { "type": "Point", "coordinates": [ -106.2052778, 37.02222222 ] } },
{ "type": "Feature", "properties": { "percent(t)": 114.0, "site": "Spar Canyon", "date": "2017-09-30T00:00:00" }, "geometry": { "type": "Point", "coordinates": [ -114.1333333, 44.28333333 ] } },
{ "type": "Feature", "properties": { "percent(t)": 199.0, "site": "NETX_Wood_TX", "date": "2017-05-31T00:00:00" }, "geometry": { "type": "Point", "coordinates": [ -95.25194444, 32.76277778 ] } },
{ "type": "Feature", "properties": { "percent(t)": 93.66666667, "site": "ponderosa", "date": "2017-06-30T00:00:00" }, "geometry": { "type": "Point", "coordinates": [ -121.3852778, 35.99833333 ] } },
{ "type": "Feature", "properties": { "percent(t)": 80.0, "site": "TPEC_Presidio_TX", "date": "2017-12-31T00:00:00" }, "geometry": { "type": "Point", "coordinates": [ -104.4538889, 30.07416667 ] } },
{ "type": "Feature", "properties": { "percent(t)": 125.6666667, "site": "Tally Lake North", "date": "2016-10-31T00:00:00" }, "geometry": { "type": "Point", "coordinates": [ -114.6763889, 48.41361111 ] } },
{ "type": "Feature", "properties": { "percent(t)": 103.5, "site": "South Canyon", "date": "2018-06-30T00:00:00" }, "geometry": { "type": "Point", "coordinates": [ -112.6916667, 38.30694444 ] } },
{ "type": "Feature", "properties": { "percent(t)": 90.5, "site": "Clark Motorway, Malibu", "date": "2018-06-30T00:00:00" }, "geometry": { "type": "Point", "coordinates": [ -118.8625, 34.08444444 ] } },
{ "type": "Feature", "properties": { "percent(t)": 68.75, "site": "Clark Motorway, Malibu", "date": "2017-08-31T00:00:00" }, "geometry": { "type": "Point", "coordinates": [ -118.8625, 34.08444444 ] } },
{ "type": "Feature", "properties": { "percent(t)": 74.5, "site": "Big Horn", "date": "2018-09-30T00:00:00" }, "geometry": { "type": "Point", "coordinates": [ -106.2052778, 37.02222222 ] } },
{ "type": "Feature", "properties": { "percent(t)": 85.0, "site": "Squaw Peak", "date": "2016-09-30T00:00:00" }, "geometry": { "type": "Point", "coordinates": [ -111.625, 40.30111111 ] } },
{ "type": "Feature", "properties": { "percent(t)": 103.0, "site": "GNF Lincoln Canyon", "date": "2017-12-31T00:00:00" }, "geometry": { "type": "Point", "coordinates": [ -108.0669444, 32.995 ] } },
{ "type": "Feature", "properties": { "percent(t)": 76.0, "site": "Warm Springs", "date": "2018-09-30T00:00:00" }, "geometry": { "type": "Point", "coordinates": [ -119.6863889, 39.78916667 ] } },
{ "type": "Feature", "properties": { "percent(t)": 239.0, "site": "Rock Spring", "date": "2017-06-30T00:00:00" }, "geometry": { "type": "Point", "coordinates": [ -113.7936111, 44.35166667 ] } },
{ "type": "Feature", "properties": { "percent(t)": 119.0, "site": "Red Feather", "date": "2018-08-31T00:00:00" }, "geometry": { "type": "Point", "coordinates": [ -105.6188889, 40.7625 ] } },
{ "type": "Feature", "properties": { "percent(t)": 84.0, "site": "Summit2", "date": "2015-08-31T00:00:00" }, "geometry": { "type": "Point", "coordinates": [ -120.1105556, 38.16694444 ] } },
{ "type": "Feature", "properties": { "percent(t)": 99.66666667, "site": "Blackberry Hill", "date": "2016-01-31T00:00:00" }, "geometry": { "type": "Point", "coordinates": [ -121.9538889, 37.21083333 ] } },
{ "type": "Feature", "properties": { "percent(t)": 157.0, "site": "Mad Ridge Fuel Break", "date": "2017-08-31T00:00:00" }, "geometry": { "type": "Point", "coordinates": [ -123.5005556, 40.42916667 ] } },
{ "type": "Feature", "properties": { "percent(t)": 56.33333333, "site": "Oak Flat", "date": "2015-07-31T00:00:00" }, "geometry": { "type": "Point", "coordinates": [ -118.9108333, 34.47138889 ] } },
{ "type": "Feature", "properties": { "percent(t)": 48.5, "site": "Los Robles, Thousand Oaks", "date": "2016-11-30T00:00:00" }, "geometry": { "type": "Point", "coordinates": [ -118.8822222, 34.17166667 ] } },
{ "type": "Feature", "properties": { "percent(t)": 121.5, "site": "NETX_Wood_TX", "date": "2016-01-31T00:00:00" }, "geometry": { "type": "Point", "coordinates": [ -95.25194444, 32.76277778 ] } },
{ "type": "Feature", "properties": { "percent(t)": 62.0, "site": "TPEC_Presidio_TX", "date": "2018-07-31T00:00:00" }, "geometry": { "type": "Point", "coordinates": [ -104.4538889, 30.07416667 ] } },
{ "type": "Feature", "properties": { "percent(t)": 54.5, "site": "Lost Creek, WY", "date": "2017-09-30T00:00:00" }, "geometry": { "type": "Point", "coordinates": [ -110.6233333, 43.74861111 ] } },
{ "type": "Feature", "properties": { "percent(t)": 92.0, "site": "CNTX_Comal_TX", "date": "2015-11-30T00:00:00" }, "geometry": { "type": "Point", "coordinates": [ -98.5075, 29.86055556 ] } },
{ "type": "Feature", "properties": { "percent(t)": 171.0, "site": "D11_Guanella_Pass", "date": "2015-07-31T00:00:00" }, "geometry": { "type": "Point", "coordinates": [ -105.7305556, 39.52333333 ] } },
{ "type": "Feature", "properties": { "percent(t)": 141.4444444, "site": "Red Feather", "date": "2017-07-31T00:00:00" }, "geometry": { "type": "Point", "coordinates": [ -105.6188889, 40.7625 ] } },
{ "type": "Feature", "properties": { "percent(t)": 61.0, "site": "TPEC_Presidio_TX", "date": "2018-05-31T00:00:00" }, "geometry": { "type": "Point", "coordinates": [ -104.4538889, 30.07416667 ] } },
{ "type": "Feature", "properties": { "percent(t)": 121.0, "site": "Clark Motorway, Malibu", "date": "2017-05-31T00:00:00" }, "geometry": { "type": "Point", "coordinates": [ -118.8625, 34.08444444 ] } },
{ "type": "Feature", "properties": { "percent(t)": 75.5, "site": "CNTX_Hays_TX", "date": "2018-06-30T00:00:00" }, "geometry": { "type": "Point", "coordinates": [ -98.08027778, 29.93444444 ] } },
{ "type": "Feature", "properties": { "percent(t)": 103.5, "site": "South Canyon", "date": "2018-06-30T00:00:00" }, "geometry": { "type": "Point", "coordinates": [ -107.4111111, 39.56527778 ] } },
{ "type": "Feature", "properties": { "percent(t)": 54.5, "site": "Clark Motorway, Malibu", "date": "2018-11-30T00:00:00" }, "geometry": { "type": "Point", "coordinates": [ -118.8625, 34.08444444 ] } },
{ "type": "Feature", "properties": { "percent(t)": 132.0, "site": "Sand Creek Desert", "date": "2018-07-31T00:00:00" }, "geometry": { "type": "Point", "coordinates": [ -111.8077778, 44.12055556 ] } },
{ "type": "Feature", "properties": { "percent(t)": 62.33333333, "site": "Oak Flat", "date": "2017-10-31T00:00:00" }, "geometry": { "type": "Point", "coordinates": [ -118.9108333, 34.47138889 ] } },
{ "type": "Feature", "properties": { "percent(t)": 140.3333333, "site": "Red Feather", "date": "2016-07-31T00:00:00" }, "geometry": { "type": "Point", "coordinates": [ -105.6188889, 40.7625 ] } },
{ "type": "Feature", "properties": { "percent(t)": 148.5, "site": "Lost Creek, WY", "date": "2016-06-30T00:00:00" }, "geometry": { "type": "Point", "coordinates": [ -110.6233333, 43.74861111 ] } },
{ "type": "Feature", "properties": { "percent(t)": 101.5, "site": "CNTX_Comal_TX", "date": "2015-06-30T00:00:00" }, "geometry": { "type": "Point", "coordinates": [ -98.5075, 29.86055556 ] } },
{ "type": "Feature", "properties": { "percent(t)": 120.0, "site": "Big Thicket National Preserve", "date": "2017-07-31T00:00:00" }, "geometry": { "type": "Point", "coordinates": [ -94.38694444, 30.45861111 ] } },
{ "type": "Feature", "properties": { "percent(t)": 109.5, "site": "Los Robles, Thousand Oaks", "date": "2016-04-30T00:00:00" }, "geometry": { "type": "Point", "coordinates": [ -118.8822222, 34.17166667 ] } },
{ "type": "Feature", "properties": { "percent(t)": 189.0, "site": "NETX_Wood_TX", "date": "2016-05-31T00:00:00" }, "geometry": { "type": "Point", "coordinates": [ -95.25194444, 32.76277778 ] } },
{ "type": "Feature", "properties": { "percent(t)": 186.5, "site": "Mad Ridge Fuel Break", "date": "2015-06-30T00:00:00" }, "geometry": { "type": "Point", "coordinates": [ -123.5005556, 40.42916667 ] } },
{ "type": "Feature", "properties": { "percent(t)": 73.83333333, "site": "Oak Flat", "date": "2016-01-31T00:00:00" }, "geometry": { "type": "Point", "coordinates": [ -118.9108333, 34.47138889 ] } },
{ "type": "Feature", "properties": { "percent(t)": 62.0, "site": "Summit2", "date": "2015-09-30T00:00:00" }, "geometry": { "type": "Point", "coordinates": [ -120.1105556, 38.16694444 ] } },
{ "type": "Feature", "properties": { "percent(t)": 67.33333333, "site": "Blackberry Hill", "date": "2015-12-31T00:00:00" }, "geometry": { "type": "Point", "coordinates": [ -121.9538889, 37.21083333 ] } },
{ "type": "Feature", "properties": { "percent(t)": 146.0, "site": "Warm Springs", "date": "2017-06-30T00:00:00" }, "geometry": { "type": "Point", "coordinates": [ -119.6863889, 39.78916667 ] } },
{ "type": "Feature", "properties": { "percent(t)": 73.0, "site": "Rock Spring", "date": "2018-08-31T00:00:00" }, "geometry": { "type": "Point", "coordinates": [ -113.7936111, 44.35166667 ] } },
{ "type": "Feature", "properties": { "percent(t)": 109.5, "site": "D02_Red_Deer", "date": "2016-07-31T00:00:00" }, "geometry": { "type": "Point", "coordinates": [ -106.2125, 38.83194444 ] } },
{ "type": "Feature", "properties": { "percent(t)": 101.0, "site": "Squaw Peak", "date": "2017-08-31T00:00:00" }, "geometry": { "type": "Point", "coordinates": [ -111.625, 40.30111111 ] } },
{ "type": "Feature", "properties": { "percent(t)": 94.33333333, "site": "GNF Lincoln Canyon", "date": "2017-05-31T00:00:00" }, "geometry": { "type": "Point", "coordinates": [ -108.0669444, 32.995 ] } },
{ "type": "Feature", "properties": { "percent(t)": 88.0, "site": "DUCK CREEK", "date": "2017-08-31T00:00:00" }, "geometry": { "type": "Point", "coordinates": [ -114.74, 39.49861111 ] } },
{ "type": "Feature", "properties": { "percent(t)": 97.25, "site": "Hall Creek", "date": "2017-09-30T00:00:00" }, "geometry": { "type": "Point", "coordinates": [ -108.4475, 42.65111111 ] } },
{ "type": "Feature", "properties": { "percent(t)": 106.25, "site": "D11_Miller_Gulch", "date": "2017-08-31T00:00:00" }, "geometry": { "type": "Point", "coordinates": [ -105.34, 39.37388889 ] } },
{ "type": "Feature", "properties": { "percent(t)": 75.25, "site": "Bitter Canyon, Castaic", "date": "2015-07-31T00:00:00" }, "geometry": { "type": "Point", "coordinates": [ -118.5944444, 34.51 ] } },
{ "type": "Feature", "properties": { "percent(t)": 193.5, "site": "NETX_Wood_TX", "date": "2019-01-31T00:00:00" }, "geometry": { "type": "Point", "coordinates": [ -95.25194444, 32.76277778 ] } },
{ "type": "Feature", "properties": { "percent(t)": 133.5, "site": "Weed Mill Site", "date": "2015-07-31T00:00:00" }, "geometry": { "type": "Point", "coordinates": [ -122.3572222, 41.43527778 ] } },
{ "type": "Feature", "properties": { "percent(t)": 87.0, "site": "Mt. Baldy Village", "date": "2016-01-31T00:00:00" }, "geometry": { "type": "Point", "coordinates": [ -117.6638889, 34.23388889 ] } },
{ "type": "Feature", "properties": { "percent(t)": 67.0, "site": "Clayton Ranch", "date": "2015-12-31T00:00:00" }, "geometry": { "type": "Point", "coordinates": [ -121.8516667, 37.91361111 ] } },
{ "type": "Feature", "properties": { "percent(t)": 107.25, "site": "RMV", "date": "2017-06-30T00:00:00" }, "geometry": { "type": "Point", "coordinates": [ -117.5166667, 33.5 ] } },
{ "type": "Feature", "properties": { "percent(t)": 70.0, "site": "Los Alamos", "date": "2016-09-30T00:00:00" }, "geometry": { "type": "Point", "coordinates": [ -118.8186111, 34.70138889 ] } },
{ "type": "Feature", "properties": { "percent(t)": 148.0, "site": "Mt. Baldy Village", "date": "2018-05-31T00:00:00" }, "geometry": { "type": "Point", "coordinates": [ -117.6638889, 34.23388889 ] } },
{ "type": "Feature", "properties": { "percent(t)": 133.0, "site": "Deep Creek", "date": "2017-09-30T00:00:00" }, "geometry": { "type": "Point", "coordinates": [ -111.1522222, 46.34472222 ] } },
{ "type": "Feature", "properties": { "percent(t)": 136.0, "site": "LNF Smokey Bear", "date": "2016-10-31T00:00:00" }, "geometry": { "type": "Point", "coordinates": [ -105.6763889, 33.35055556 ] } },
{ "type": "Feature", "properties": { "percent(t)": 92.66666667, "site": "Price Rec", "date": "2018-10-31T00:00:00" }, "geometry": { "type": "Point", "coordinates": [ -110.9144444, 39.75916667 ] } },
{ "type": "Feature", "properties": { "percent(t)": 287.0, "site": "Dubois", "date": "2018-05-31T00:00:00" }, "geometry": { "type": "Point", "coordinates": [ -112.2330556, 44.0675 ] } },
{ "type": "Feature", "properties": { "percent(t)": 217.75, "site": "Bitter Canyon, Castaic", "date": "2016-03-31T00:00:00" }, "geometry": { "type": "Point", "coordinates": [ -118.5944444, 34.51 ] } },
{ "type": "Feature", "properties": { "percent(t)": 87.5, "site": "Hall Creek", "date": "2018-09-30T00:00:00" }, "geometry": { "type": "Point", "coordinates": [ -111.7711111, 46.31694444 ] } },
{ "type": "Feature", "properties": { "percent(t)": 132.0, "site": "D06_Ute Canyon", "date": "2018-06-30T00:00:00" }, "geometry": { "type": "Point", "coordinates": [ -102.63, 37.06 ] } },
{ "type": "Feature", "properties": { "percent(t)": 102.0, "site": "LNF Mayhill", "date": "2018-06-30T00:00:00" }, "geometry": { "type": "Point", "coordinates": [ -105.4627778, 32.92111111 ] } },
{ "type": "Feature", "properties": { "percent(t)": 60.66666667, "site": "Blackberry Hill", "date": "2018-11-30T00:00:00" }, "geometry": { "type": "Point", "coordinates": [ -121.9538889, 37.21083333 ] } },
{ "type": "Feature", "properties": { "percent(t)": 215.0, "site": "Dubois", "date": "2018-06-30T00:00:00" }, "geometry": { "type": "Point", "coordinates": [ -112.2330556, 44.0675 ] } },
{ "type": "Feature", "properties": { "percent(t)": 104.5, "site": "South Canyon", "date": "2016-07-31T00:00:00" }, "geometry": { "type": "Point", "coordinates": [ -107.4111111, 39.56527778 ] } },
{ "type": "Feature", "properties": { "percent(t)": 145.6666667, "site": "LNF Smokey Bear", "date": "2015-07-31T00:00:00" }, "geometry": { "type": "Point", "coordinates": [ -105.6763889, 33.35055556 ] } },
{ "type": "Feature", "properties": { "percent(t)": 107.25, "site": "Muskrat", "date": "2017-06-30T00:00:00" }, "geometry": { "type": "Point", "coordinates": [ -112.6719444, 40.62805556 ] } },
{ "type": "Feature", "properties": { "percent(t)": 73.33333333, "site": "Los Alamos", "date": "2016-12-31T00:00:00" }, "geometry": { "type": "Point", "coordinates": [ -118.8186111, 34.70138889 ] } },
{ "type": "Feature", "properties": { "percent(t)": 137.0, "site": "Mt. Baldy Village", "date": "2017-05-31T00:00:00" }, "geometry": { "type": "Point", "coordinates": [ -117.6638889, 34.23388889 ] } },
{ "type": "Feature", "properties": { "percent(t)": 156.25, "site": "Deep Creek", "date": "2017-06-30T00:00:00" }, "geometry": { "type": "Point", "coordinates": [ -111.1522222, 46.34472222 ] } },
{ "type": "Feature", "properties": { "percent(t)": 72.0, "site": "Blackberry Hill", "date": "2019-01-31T00:00:00" }, "geometry": { "type": "Point", "coordinates": [ -121.9538889, 37.21083333 ] } },
{ "type": "Feature", "properties": { "percent(t)": 92.5, "site": "RMV", "date": "2018-01-31T00:00:00" }, "geometry": { "type": "Point", "coordinates": [ -117.5166667, 33.5 ] } },
{ "type": "Feature", "properties": { "percent(t)": 106.0, "site": "Mt. Baldy Village", "date": "2016-04-30T00:00:00" }, "geometry": { "type": "Point", "coordinates": [ -117.6638889, 34.23388889 ] } },
{ "type": "Feature", "properties": { "percent(t)": 103.0, "site": "NOTX_Hood_TX", "date": "2016-10-31T00:00:00" }, "geometry": { "type": "Point", "coordinates": [ -97.82416667, 32.45777778 ] } },
{ "type": "Feature", "properties": { "percent(t)": 145.5, "site": "Weed Mill Site", "date": "2016-06-30T00:00:00" }, "geometry": { "type": "Point", "coordinates": [ -122.3572222, 41.43527778 ] } },
{ "type": "Feature", "properties": { "percent(t)": 87.0, "site": "D11_Miller_Gulch", "date": "2017-05-31T00:00:00" }, "geometry": { "type": "Point", "coordinates": [ -105.34, 39.37388889 ] } },
{ "type": "Feature", "properties": { "percent(t)": 75.0, "site": "Lewis Canyon", "date": "2017-08-31T00:00:00" }, "geometry": { "type": "Point", "coordinates": [ -116.88, 40.47222222 ] } },
{ "type": "Feature", "properties": { "percent(t)": 151.8333333, "site": "Hall Creek", "date": "2017-06-30T00:00:00" }, "geometry": { "type": "Point", "coordinates": [ -111.7711111, 46.31694444 ] } },
{ "type": "Feature", "properties": { "percent(t)": 58.33333333, "site": "upper oso", "date": "2017-11-30T00:00:00" }, "geometry": { "type": "Point", "coordinates": [ -119.7672222, 34.55416667 ] } },
{ "type": "Feature", "properties": { "percent(t)": 79.66666667, "site": "Big Indian", "date": "2017-01-31T00:00:00" }, "geometry": { "type": "Point", "coordinates": [ -109.2736111, 38.22138889 ] } },
{ "type": "Feature", "properties": { "percent(t)": 107.0, "site": "Grass Mesa", "date": "2017-07-31T00:00:00" }, "geometry": { "type": "Point", "coordinates": [ -107.7847222, 39.45361111 ] } },
{ "type": "Feature", "properties": { "percent(t)": 68.5, "site": "Bitter Canyon, Castaic", "date": "2015-09-30T00:00:00" }, "geometry": { "type": "Point", "coordinates": [ -118.5944444, 34.51 ] } },
{ "type": "Feature", "properties": { "percent(t)": 114.0, "site": "NOTX_Palo_TX", "date": "2017-06-30T00:00:00" }, "geometry": { "type": "Point", "coordinates": [ -98.55722222, 32.86555556 ] } },
{ "type": "Feature", "properties": { "percent(t)": 138.0, "site": "Keating Cutoff", "date": "2017-07-31T00:00:00" }, "geometry": { "type": "Point", "coordinates": [ -117.6647222, 44.8125 ] } },
{ "type": "Feature", "properties": { "percent(t)": 114.6666667, "site": "Benchmark", "date": "2016-08-31T00:00:00" }, "geometry": { "type": "Point", "coordinates": [ -112.8636111, 47.645 ] } },
{ "type": "Feature", "properties": { "percent(t)": 77.33333333, "site": "nacimiento", "date": "2016-11-30T00:00:00" }, "geometry": { "type": "Point", "coordinates": [ -121.45, 36.0075 ] } },
{ "type": "Feature", "properties": { "percent(t)": 53.0, "site": "upper oso", "date": "2016-09-30T00:00:00" }, "geometry": { "type": "Point", "coordinates": [ -119.7672222, 34.55416667 ] } },
{ "type": "Feature", "properties": { "percent(t)": 57.77777778, "site": "Blackberry Hill", "date": "2018-09-30T00:00:00" }, "geometry": { "type": "Point", "coordinates": [ -121.9538889, 37.21083333 ] } },
{ "type": "Feature", "properties": { "percent(t)": 101.5, "site": "NOTX_Palo_TX", "date": "2017-11-30T00:00:00" }, "geometry": { "type": "Point", "coordinates": [ -98.55722222, 32.86555556 ] } },
{ "type": "Feature", "properties": { "percent(t)": 91.0, "site": "Morgan Creek", "date": "2018-08-31T00:00:00" }, "geometry": { "type": "Point", "coordinates": [ -114.2283333, 44.66833333 ] } },
{ "type": "Feature", "properties": { "percent(t)": 152.9090909, "site": "Black Cedar", "date": "2017-05-31T00:00:00" }, "geometry": { "type": "Point", "coordinates": [ -112.2394444, 38.97916667 ] } },
{ "type": "Feature", "properties": { "percent(t)": 112.6666667, "site": "LNF Mayhill", "date": "2018-01-31T00:00:00" }, "geometry": { "type": "Point", "coordinates": [ -105.4627778, 32.92111111 ] } },
{ "type": "Feature", "properties": { "percent(t)": 92.75, "site": "D11_Miller_Gulch", "date": "2015-06-30T00:00:00" }, "geometry": { "type": "Point", "coordinates": [ -105.34, 39.37388889 ] } },
{ "type": "Feature", "properties": { "percent(t)": 85.875, "site": "Bitter Canyon, Castaic", "date": "2016-05-31T00:00:00" }, "geometry": { "type": "Point", "coordinates": [ -118.5944444, 34.51 ] } },
{ "type": "Feature", "properties": { "percent(t)": 108.5, "site": "Hall Creek", "date": "2018-08-31T00:00:00" }, "geometry": { "type": "Point", "coordinates": [ -111.7711111, 46.31694444 ] } },
{ "type": "Feature", "properties": { "percent(t)": 109.6666667, "site": "Tumalo Ridge", "date": "2018-05-31T00:00:00" }, "geometry": { "type": "Point", "coordinates": [ -121.4041667, 44.04638889 ] } },
{ "type": "Feature", "properties": { "percent(t)": 54.33333333, "site": "Lake Hughes", "date": "2015-07-31T00:00:00" }, "geometry": { "type": "Point", "coordinates": [ -118.5613889, 34.54333333 ] } },
{ "type": "Feature", "properties": { "percent(t)": 149.5, "site": "NOTX_Palo_TX", "date": "2016-05-31T00:00:00" }, "geometry": { "type": "Point", "coordinates": [ -98.55722222, 32.86555556 ] } },
{ "type": "Feature", "properties": { "percent(t)": 112.8333333, "site": "LNF Smokey Bear", "date": "2016-12-31T00:00:00" }, "geometry": { "type": "Point", "coordinates": [ -105.6763889, 33.35055556 ] } },
{ "type": "Feature", "properties": { "percent(t)": 112.3333333, "site": "South Canyon", "date": "2015-06-30T00:00:00" }, "geometry": { "type": "Point", "coordinates": [ -112.6916667, 38.30694444 ] } },
{ "type": "Feature", "properties": { "percent(t)": 64.0, "site": "Clayton Ranch", "date": "2016-07-31T00:00:00" }, "geometry": { "type": "Point", "coordinates": [ -121.8516667, 37.91361111 ] } },
{ "type": "Feature", "properties": { "percent(t)": 97.5, "site": "Mt. Baldy Village", "date": "2018-07-31T00:00:00" }, "geometry": { "type": "Point", "coordinates": [ -117.6638889, 34.23388889 ] } },
{ "type": "Feature", "properties": { "percent(t)": 95.75, "site": "Hall Creek", "date": "2017-10-31T00:00:00" }, "geometry": { "type": "Point", "coordinates": [ -108.4475, 42.65111111 ] } },
{ "type": "Feature", "properties": { "percent(t)": 63.25, "site": "Sonora", "date": "2018-10-31T00:00:00" }, "geometry": { "type": "Point", "coordinates": [ -120.3516667, 38.00333333 ] } },
{ "type": "Feature", "properties": { "percent(t)": 100.5, "site": "NOTX_Palo_TX", "date": "2017-01-31T00:00:00" }, "geometry": { "type": "Point", "coordinates": [ -98.55722222, 32.86555556 ] } },
{ "type": "Feature", "properties": { "percent(t)": 206.6666667, "site": "Keating Cutoff", "date": "2017-05-31T00:00:00" }, "geometry": { "type": "Point", "coordinates": [ -117.6647222, 44.8125 ] } },
{ "type": "Feature", "properties": { "percent(t)": 64.0, "site": "Lake Hughes", "date": "2015-11-30T00:00:00" }, "geometry": { "type": "Point", "coordinates": [ -118.5613889, 34.54333333 ] } },
{ "type": "Feature", "properties": { "percent(t)": 147.1666667, "site": "Hall Creek", "date": "2018-05-31T00:00:00" }, "geometry": { "type": "Point", "coordinates": [ -108.4475, 42.65111111 ] } },
{ "type": "Feature", "properties": { "percent(t)": 109.5, "site": "D11_Guanella_Pass", "date": "2018-10-31T00:00:00" }, "geometry": { "type": "Point", "coordinates": [ -105.7305556, 39.52333333 ] } },
{ "type": "Feature", "properties": { "percent(t)": 106.6666667, "site": "Big Indian", "date": "2016-06-30T00:00:00" }, "geometry": { "type": "Point", "coordinates": [ -109.2736111, 38.22138889 ] } },
{ "type": "Feature", "properties": { "percent(t)": 121.25, "site": "LNF Cosmic", "date": "2018-06-30T00:00:00" }, "geometry": { "type": "Point", "coordinates": [ -105.8188889, 32.77944444 ] } },
{ "type": "Feature", "properties": { "percent(t)": 177.5, "site": "Pocatello", "date": "2016-06-30T00:00:00" }, "geometry": { "type": "Point", "coordinates": [ -112.405, 42.83333333 ] } },
{ "type": "Feature", "properties": { "percent(t)": 90.5, "site": "Grass Mesa", "date": "2017-09-30T00:00:00" }, "geometry": { "type": "Point", "coordinates": [ -107.7847222, 39.45361111 ] } },
{ "type": "Feature", "properties": { "percent(t)": 60.66666667, "site": "upper oso", "date": "2017-09-30T00:00:00" }, "geometry": { "type": "Point", "coordinates": [ -119.7672222, 34.55416667 ] } },
{ "type": "Feature", "properties": { "percent(t)": 74.0, "site": "Blackberry Hill", "date": "2018-01-31T00:00:00" }, "geometry": { "type": "Point", "coordinates": [ -121.9538889, 37.21083333 ] } },
{ "type": "Feature", "properties": { "percent(t)": 100.6666667, "site": "NOTX_Palo_TX", "date": "2017-10-31T00:00:00" }, "geometry": { "type": "Point", "coordinates": [ -98.55722222, 32.86555556 ] } },
{ "type": "Feature", "properties": { "percent(t)": 115.3333333, "site": "Benchmark", "date": "2016-07-31T00:00:00" }, "geometry": { "type": "Point", "coordinates": [ -112.8636111, 47.645 ] } },
{ "type": "Feature", "properties": { "percent(t)": 83.33333333, "site": "nacimiento", "date": "2016-12-31T00:00:00" }, "geometry": { "type": "Point", "coordinates": [ -121.45, 36.0075 ] } },
{ "type": "Feature", "properties": { "percent(t)": 123.125, "site": "Sonora", "date": "2017-06-30T00:00:00" }, "geometry": { "type": "Point", "coordinates": [ -120.3516667, 38.00333333 ] } },
{ "type": "Feature", "properties": { "percent(t)": 93.0, "site": "NOTX_Hood_TX", "date": "2017-01-31T00:00:00" }, "geometry": { "type": "Point", "coordinates": [ -97.82416667, 32.45777778 ] } },
{ "type": "Feature", "properties": { "percent(t)": 76.5, "site": "RMV", "date": "2018-06-30T00:00:00" }, "geometry": { "type": "Point", "coordinates": [ -117.5166667, 33.5 ] } },
{ "type": "Feature", "properties": { "percent(t)": 109.5, "site": "South Canyon", "date": "2016-06-30T00:00:00" }, "geometry": { "type": "Point", "coordinates": [ -107.4111111, 39.56527778 ] } },
{ "type": "Feature", "properties": { "percent(t)": 72.25, "site": "Muskrat", "date": "2017-08-31T00:00:00" }, "geometry": { "type": "Point", "coordinates": [ -112.6719444, 40.62805556 ] } },
{ "type": "Feature", "properties": { "percent(t)": 91.0, "site": "Sand Creek Desert", "date": "2018-08-31T00:00:00" }, "geometry": { "type": "Point", "coordinates": [ -111.8077778, 44.12055556 ] } },
{ "type": "Feature", "properties": { "percent(t)": 98.0, "site": "South Canyon", "date": "2018-07-31T00:00:00" }, "geometry": { "type": "Point", "coordinates": [ -112.6916667, 38.30694444 ] } },
{ "type": "Feature", "properties": { "percent(t)": 65.0, "site": "Glendora Ridge, Glendora", "date": "2015-07-31T00:00:00" }, "geometry": { "type": "Point", "coordinates": [ -117.865, 34.16527778 ] } },
{ "type": "Feature", "properties": { "percent(t)": 77.5, "site": "CNTX_Hays_TX", "date": "2018-07-31T00:00:00" }, "geometry": { "type": "Point", "coordinates": [ -98.08027778, 29.93444444 ] } },
{ "type": "Feature", "properties": { "percent(t)": 64.33333333, "site": "Oak Flat", "date": "2017-09-30T00:00:00" }, "geometry": { "type": "Point", "coordinates": [ -118.9108333, 34.47138889 ] } },
{ "type": "Feature", "properties": { "percent(t)": 61.0, "site": "TPEC_Presidio_TX", "date": "2018-06-30T00:00:00" }, "geometry": { "type": "Point", "coordinates": [ -104.4538889, 30.07416667 ] } },
{ "type": "Feature", "properties": { "percent(t)": 88.16666667, "site": "Clark Motorway, Malibu", "date": "2017-06-30T00:00:00" }, "geometry": { "type": "Point", "coordinates": [ -118.8625, 34.08444444 ] } },
{ "type": "Feature", "properties": { "percent(t)": 100.0, "site": "Summit2", "date": "2015-10-31T00:00:00" }, "geometry": { "type": "Point", "coordinates": [ -120.1105556, 38.16694444 ] } },
{ "type": "Feature", "properties": { "percent(t)": 64.0, "site": "Blackberry Hill", "date": "2015-11-30T00:00:00" }, "geometry": { "type": "Point", "coordinates": [ -121.9538889, 37.21083333 ] } },
{ "type": "Feature", "properties": { "percent(t)": 103.0, "site": "McCloud (SHF)", "date": "2018-11-30T00:00:00" }, "geometry": { "type": "Point", "coordinates": [ -122.0544444, 41.29361111 ] } },
{ "type": "Feature", "properties": { "percent(t)": 88.0, "site": "Oak Flat", "date": "2016-04-30T00:00:00" }, "geometry": { "type": "Point", "coordinates": [ -118.9108333, 34.47138889 ] } },
{ "type": "Feature", "properties": { "percent(t)": 112.0, "site": "Squaw Peak", "date": "2017-07-31T00:00:00" }, "geometry": { "type": "Point", "coordinates": [ -111.625, 40.30111111 ] } },
{ "type": "Feature", "properties": { "percent(t)": 142.0, "site": "GNF Lincoln Canyon", "date": "2017-07-31T00:00:00" }, "geometry": { "type": "Point", "coordinates": [ -108.0669444, 32.995 ] } },
{ "type": "Feature", "properties": { "percent(t)": 123.0, "site": "Warm Springs", "date": "2017-07-31T00:00:00" }, "geometry": { "type": "Point", "coordinates": [ -119.6863889, 39.78916667 ] } },
{ "type": "Feature", "properties": { "percent(t)": 105.0, "site": "Rock Spring", "date": "2018-07-31T00:00:00" }, "geometry": { "type": "Point", "coordinates": [ -113.7936111, 44.35166667 ] } },
{ "type": "Feature", "properties": { "percent(t)": 92.5, "site": "D02_Red_Deer", "date": "2015-07-31T00:00:00" }, "geometry": { "type": "Point", "coordinates": [ -106.2125, 38.83194444 ] } },
{ "type": "Feature", "properties": { "percent(t)": 173.1666667, "site": "Lost Creek, WY", "date": "2015-06-30T00:00:00" }, "geometry": { "type": "Point", "coordinates": [ -110.6233333, 43.74861111 ] } },
{ "type": "Feature", "properties": { "percent(t)": 71.0, "site": "Sharpnose", "date": "2018-09-30T00:00:00" }, "geometry": { "type": "Point", "coordinates": [ -108.6105556, 42.94861111 ] } },
{ "type": "Feature", "properties": { "percent(t)": 140.6666667, "site": "Red Feather", "date": "2015-07-31T00:00:00" }, "geometry": { "type": "Point", "coordinates": [ -105.6188889, 40.7625 ] } },
{ "type": "Feature", "properties": { "percent(t)": 89.0, "site": "Los Robles, Thousand Oaks", "date": "2016-05-31T00:00:00" }, "geometry": { "type": "Point", "coordinates": [ -118.8822222, 34.17166667 ] } },
{ "type": "Feature", "properties": { "percent(t)": 115.5, "site": "NETX_Wood_TX", "date": "2016-04-30T00:00:00" }, "geometry": { "type": "Point", "coordinates": [ -95.25194444, 32.76277778 ] } },
{ "type": "Feature", "properties": { "percent(t)": 136.0, "site": "Big Thicket National Preserve", "date": "2017-06-30T00:00:00" }, "geometry": { "type": "Point", "coordinates": [ -94.38694444, 30.45861111 ] } },
{ "type": "Feature", "properties": { "percent(t)": 88.0, "site": "Big Horn", "date": "2018-08-31T00:00:00" }, "geometry": { "type": "Point", "coordinates": [ -106.2052778, 37.02222222 ] } },
{ "type": "Feature", "properties": { "percent(t)": 73.0, "site": "Clark Motorway, Malibu", "date": "2017-07-31T00:00:00" }, "geometry": { "type": "Point", "coordinates": [ -118.8625, 34.08444444 ] } },
{ "type": "Feature", "properties": { "percent(t)": 120.5, "site": "Tally Lake North", "date": "2016-09-30T00:00:00" }, "geometry": { "type": "Point", "coordinates": [ -114.6763889, 48.41361111 ] } },
{ "type": "Feature", "properties": { "percent(t)": 122.0, "site": "South Canyon", "date": "2018-05-31T00:00:00" }, "geometry": { "type": "Point", "coordinates": [ -107.4111111, 39.56527778 ] } },
{ "type": "Feature", "properties": { "percent(t)": 140.5, "site": "Clark Motorway, Malibu", "date": "2018-05-31T00:00:00" }, "geometry": { "type": "Point", "coordinates": [ -118.8625, 34.08444444 ] } },
{ "type": "Feature", "properties": { "percent(t)": 69.0, "site": "TPEC_Presidio_TX", "date": "2018-08-31T00:00:00" }, "geometry": { "type": "Point", "coordinates": [ -104.4538889, 30.07416667 ] } },
{ "type": "Feature", "properties": { "percent(t)": 47.5, "site": "Los Robles, Thousand Oaks", "date": "2016-10-31T00:00:00" }, "geometry": { "type": "Point", "coordinates": [ -118.8822222, 34.17166667 ] } },
{ "type": "Feature", "properties": { "percent(t)": 122.0, "site": "NETX_Wood_TX", "date": "2016-03-31T00:00:00" }, "geometry": { "type": "Point", "coordinates": [ -95.25194444, 32.76277778 ] } },
{ "type": "Feature", "properties": { "percent(t)": 127.6666667, "site": "Red Feather", "date": "2017-08-31T00:00:00" }, "geometry": { "type": "Point", "coordinates": [ -105.6188889, 40.7625 ] } },
{ "type": "Feature", "properties": { "percent(t)": 112.0, "site": "D11_Guanella_Pass", "date": "2016-07-31T00:00:00" }, "geometry": { "type": "Point", "coordinates": [ -105.7305556, 39.52333333 ] } },
{ "type": "Feature", "properties": { "percent(t)": 164.5, "site": "Lost Creek, WY", "date": "2018-05-31T00:00:00" }, "geometry": { "type": "Point", "coordinates": [ -110.6233333, 43.74861111 ] } },
{ "type": "Feature", "properties": { "percent(t)": 81.0, "site": "CNTX_Comal_TX", "date": "2016-07-31T00:00:00" }, "geometry": { "type": "Point", "coordinates": [ -98.5075, 29.86055556 ] } },
{ "type": "Feature", "properties": { "percent(t)": 95.5, "site": "Warm Springs", "date": "2018-08-31T00:00:00" }, "geometry": { "type": "Point", "coordinates": [ -119.6863889, 39.78916667 ] } },
{ "type": "Feature", "properties": { "percent(t)": 141.0, "site": "Rock Spring", "date": "2017-07-31T00:00:00" }, "geometry": { "type": "Point", "coordinates": [ -113.7936111, 44.35166667 ] } },
{ "type": "Feature", "properties": { "percent(t)": 110.3333333, "site": "Red Feather", "date": "2018-09-30T00:00:00" }, "geometry": { "type": "Point", "coordinates": [ -105.6188889, 40.7625 ] } },
{ "type": "Feature", "properties": { "percent(t)": 143.0, "site": "Squaw Peak", "date": "2017-06-30T00:00:00" }, "geometry": { "type": "Point", "coordinates": [ -111.625, 40.30111111 ] } },
{ "type": "Feature", "properties": { "percent(t)": 110.4444444, "site": "GNF Lincoln Canyon", "date": "2017-10-31T00:00:00" }, "geometry": { "type": "Point", "coordinates": [ -108.0669444, 32.995 ] } },
{ "type": "Feature", "properties": { "percent(t)": 133.0, "site": "Mad Ridge Fuel Break", "date": "2018-05-31T00:00:00" }, "geometry": { "type": "Point", "coordinates": [ -123.5005556, 40.42916667 ] } },
{ "type": "Feature", "properties": { "percent(t)": 61.16666667, "site": "Oak Flat", "date": "2015-06-30T00:00:00" }, "geometry": { "type": "Point", "coordinates": [ -118.9108333, 34.47138889 ] } },
{ "type": "Feature", "properties": { "percent(t)": 113.0, "site": "Summit2", "date": "2015-07-31T00:00:00" }, "geometry": { "type": "Point", "coordinates": [ -120.1105556, 38.16694444 ] } },
{ "type": "Feature", "properties": { "percent(t)": 97.66666667, "site": "Blackberry Hill", "date": "2016-06-30T00:00:00" }, "geometry": { "type": "Point", "coordinates": [ -121.9538889, 37.21083333 ] } },
{ "type": "Feature", "properties": { "percent(t)": 137.0, "site": "Big Thicket National Preserve", "date": "2017-08-31T00:00:00" }, "geometry": { "type": "Point", "coordinates": [ -94.38694444, 30.45861111 ] } },
{ "type": "Feature", "properties": { "percent(t)": 72.25, "site": "Bitter Canyon, Castaic", "date": "2017-11-30T00:00:00" }, "geometry": { "type": "Point", "coordinates": [ -118.5944444, 34.51 ] } },
{ "type": "Feature", "properties": { "percent(t)": 106.0, "site": "D10 - Flagstaff Mtn. - Cold", "date": "2017-09-30T00:00:00" }, "geometry": { "type": "Point", "coordinates": [ -105.3383333, 38.97916667 ] } },
{ "type": "Feature", "properties": { "percent(t)": 73.0, "site": "Rock Spring", "date": "2018-09-30T00:00:00" }, "geometry": { "type": "Point", "coordinates": [ -113.7936111, 44.35166667 ] } },
{ "type": "Feature", "properties": { "percent(t)": 119.6666667, "site": "Great Divide", "date": "2016-07-31T00:00:00" }, "geometry": { "type": "Point", "coordinates": [ -107.8536111, 40.7575 ] } },
{ "type": "Feature", "properties": { "percent(t)": 57.0, "site": "Oak Flat", "date": "2016-07-31T00:00:00" }, "geometry": { "type": "Point", "coordinates": [ -118.9108333, 34.47138889 ] } },
{ "type": "Feature", "properties": { "percent(t)": 86.75, "site": "Big Horn", "date": "2017-06-30T00:00:00" }, "geometry": { "type": "Point", "coordinates": [ -106.2052778, 37.02222222 ] } },
{ "type": "Feature", "properties": { "percent(t)": 207.0, "site": "Spar Canyon", "date": "2018-05-31T00:00:00" }, "geometry": { "type": "Point", "coordinates": [ -114.1333333, 44.28333333 ] } },
{ "type": "Feature", "properties": { "percent(t)": 100.0, "site": "CNTX_Hays_TX", "date": "2016-09-30T00:00:00" }, "geometry": { "type": "Point", "coordinates": [ -98.08027778, 29.93444444 ] } },
{ "type": "Feature", "properties": { "percent(t)": 60.5, "site": "ponderosa", "date": "2017-01-31T00:00:00" }, "geometry": { "type": "Point", "coordinates": [ -121.3852778, 35.99833333 ] } },
{ "type": "Feature", "properties": { "percent(t)": 83.0, "site": "TPEC_Presidio_TX", "date": "2018-01-31T00:00:00" }, "geometry": { "type": "Point", "coordinates": [ -104.4538889, 30.07416667 ] } },
{ "type": "Feature", "properties": { "percent(t)": 184.0, "site": "NETX_Wood_TX", "date": "2017-06-30T00:00:00" }, "geometry": { "type": "Point", "coordinates": [ -95.25194444, 32.76277778 ] } },
{ "type": "Feature", "properties": { "percent(t)": 83.0, "site": "Oak Flat", "date": "2017-06-30T00:00:00" }, "geometry": { "type": "Point", "coordinates": [ -118.9108333, 34.47138889 ] } },
{ "type": "Feature", "properties": { "percent(t)": 89.0, "site": "Ziegler", "date": "2018-05-31T00:00:00" }, "geometry": { "type": "Point", "coordinates": [ -123.5180556, 40.89305556 ] } },
{ "type": "Feature", "properties": { "percent(t)": 170.0, "site": "Pulgas", "date": "2017-05-31T00:00:00" }, "geometry": { "type": "Point", "coordinates": [ -122.3188889, 37.48861111 ] } },
{ "type": "Feature", "properties": { "percent(t)": 120.0, "site": "Cottage", "date": "2017-07-31T00:00:00" }, "geometry": { "type": "Point", "coordinates": [ -120.2283333, 38.345 ] } },
{ "type": "Feature", "properties": { "percent(t)": 240.5, "site": "Sand Creek Desert", "date": "2018-06-30T00:00:00" }, "geometry": { "type": "Point", "coordinates": [ -111.8077778, 44.12055556 ] } },
{ "type": "Feature", "properties": { "percent(t)": 53.0, "site": "Glendora Ridge, Glendora", "date": "2015-09-30T00:00:00" }, "geometry": { "type": "Point", "coordinates": [ -117.865, 34.16527778 ] } },
{ "type": "Feature", "properties": { "percent(t)": 105.0, "site": "CAF Truchas 1", "date": "2016-07-31T00:00:00" }, "geometry": { "type": "Point", "coordinates": [ -105.8072222, 36.06861111 ] } },
{ "type": "Feature", "properties": { "percent(t)": 97.5, "site": "CNTX_Hays_TX", "date": "2018-05-31T00:00:00" }, "geometry": { "type": "Point", "coordinates": [ -98.08027778, 29.93444444 ] } },
{ "type": "Feature", "properties": { "percent(t)": 123.5, "site": "Maple Canyon", "date": "2018-06-30T00:00:00" }, "geometry": { "type": "Point", "coordinates": [ -111.5327778, 40.135 ] } },
{ "type": "Feature", "properties": { "percent(t)": 170.5, "site": "Mad Ridge Fuel Break", "date": "2018-07-31T00:00:00" }, "geometry": { "type": "Point", "coordinates": [ -123.5005556, 40.42916667 ] } },
{ "type": "Feature", "properties": { "percent(t)": 75.0, "site": "Warm Springs", "date": "2018-10-31T00:00:00" }, "geometry": { "type": "Point", "coordinates": [ -119.6863889, 39.78916667 ] } },
{ "type": "Feature", "properties": { "percent(t)": 189.0, "site": "Great Divide", "date": "2016-06-30T00:00:00" }, "geometry": { "type": "Point", "coordinates": [ -107.8536111, 40.7575 ] } },
{ "type": "Feature", "properties": { "percent(t)": 114.3333333, "site": "Red Feather", "date": "2018-05-31T00:00:00" }, "geometry": { "type": "Point", "coordinates": [ -105.6188889, 40.7625 ] } },
{ "type": "Feature", "properties": { "percent(t)": 161.75, "site": "Bitter Canyon, Castaic", "date": "2018-05-31T00:00:00" }, "geometry": { "type": "Point", "coordinates": [ -118.5944444, 34.51 ] } },
{ "type": "Feature", "properties": { "percent(t)": 102.0, "site": "D10 - Flagstaff Mtn. - Cold", "date": "2018-09-30T00:00:00" }, "geometry": { "type": "Point", "coordinates": [ -105.3383333, 38.97916667 ] } },
{ "type": "Feature", "properties": { "percent(t)": 100.25, "site": "Lost Creek, WY", "date": "2018-07-31T00:00:00" }, "geometry": { "type": "Point", "coordinates": [ -110.6233333, 43.74861111 ] } },
{ "type": "Feature", "properties": { "percent(t)": 59.0, "site": "Los Robles, Thousand Oaks", "date": "2016-12-31T00:00:00" }, "geometry": { "type": "Point", "coordinates": [ -118.8822222, 34.17166667 ] } },
{ "type": "Feature", "properties": { "percent(t)": 91.0, "site": "CAF Truchas 1", "date": "2016-11-30T00:00:00" }, "geometry": { "type": "Point", "coordinates": [ -105.8072222, 36.06861111 ] } },
{ "type": "Feature", "properties": { "percent(t)": 68.5, "site": "CNTX_Hays_TX", "date": "2017-07-31T00:00:00" }, "geometry": { "type": "Point", "coordinates": [ -98.08027778, 29.93444444 ] } },
{ "type": "Feature", "properties": { "percent(t)": 104.5, "site": "Maple Canyon", "date": "2017-07-31T00:00:00" }, "geometry": { "type": "Point", "coordinates": [ -111.5327778, 40.135 ] } },
{ "type": "Feature", "properties": { "percent(t)": 185.3333333, "site": "Sand Creek Desert", "date": "2016-06-30T00:00:00" }, "geometry": { "type": "Point", "coordinates": [ -111.8077778, 44.12055556 ] } },
{ "type": "Feature", "properties": { "percent(t)": 168.0, "site": "Pulgas", "date": "2017-06-30T00:00:00" }, "geometry": { "type": "Point", "coordinates": [ -122.3188889, 37.48861111 ] } },
{ "type": "Feature", "properties": { "percent(t)": 114.0, "site": "Cottage", "date": "2017-06-30T00:00:00" }, "geometry": { "type": "Point", "coordinates": [ -120.2283333, 38.345 ] } },
{ "type": "Feature", "properties": { "percent(t)": 53.0, "site": "Oak Flat", "date": "2016-09-30T00:00:00" }, "geometry": { "type": "Point", "coordinates": [ -118.9108333, 34.47138889 ] } },
{ "type": "Feature", "properties": { "percent(t)": 87.8, "site": "Tally Lake North", "date": "2015-06-30T00:00:00" }, "geometry": { "type": "Point", "coordinates": [ -114.6763889, 48.41361111 ] } },
{ "type": "Feature", "properties": { "percent(t)": 182.0, "site": "NETX_Wood_TX", "date": "2016-12-31T00:00:00" }, "geometry": { "type": "Point", "coordinates": [ -95.25194444, 32.76277778 ] } },
{ "type": "Feature", "properties": { "percent(t)": 64.83333333, "site": "ponderosa", "date": "2017-08-31T00:00:00" }, "geometry": { "type": "Point", "coordinates": [ -121.3852778, 35.99833333 ] } },
{ "type": "Feature", "properties": { "percent(t)": 68.0, "site": "TPEC_Presidio_TX", "date": "2017-06-30T00:00:00" }, "geometry": { "type": "Point", "coordinates": [ -104.4538889, 30.07416667 ] } },
{ "type": "Feature", "properties": { "percent(t)": 96.0, "site": "CNTX_Hays_TX", "date": "2016-10-31T00:00:00" }, "geometry": { "type": "Point", "coordinates": [ -98.08027778, 29.93444444 ] } },
{ "type": "Feature", "properties": { "percent(t)": 70.0, "site": "Big Horn", "date": "2018-05-31T00:00:00" }, "geometry": { "type": "Point", "coordinates": [ -106.2052778, 37.02222222 ] } },
{ "type": "Feature", "properties": { "percent(t)": 157.0, "site": "Spar Canyon", "date": "2018-06-30T00:00:00" }, "geometry": { "type": "Point", "coordinates": [ -114.1333333, 44.28333333 ] } },
{ "type": "Feature", "properties": { "percent(t)": 94.0, "site": "Grass Mesa", "date": "2017-08-31T00:00:00" }, "geometry": { "type": "Point", "coordinates": [ -107.7847222, 39.45361111 ] } },
{ "type": "Feature", "properties": { "percent(t)": 183.6666667, "site": "Pocatello", "date": "2015-06-30T00:00:00" }, "geometry": { "type": "Point", "coordinates": [ -112.405, 42.83333333 ] } },
{ "type": "Feature", "properties": { "percent(t)": 109.3333333, "site": "Big Indian", "date": "2015-06-30T00:00:00" }, "geometry": { "type": "Point", "coordinates": [ -109.2736111, 38.22138889 ] } },
{ "type": "Feature", "properties": { "percent(t)": 143.1666667, "site": "LNF Mayhill", "date": "2015-07-31T00:00:00" }, "geometry": { "type": "Point", "coordinates": [ -105.4627778, 32.92111111 ] } },
{ "type": "Feature", "properties": { "percent(t)": 93.33333333, "site": "Benchmark", "date": "2016-06-30T00:00:00" }, "geometry": { "type": "Point", "coordinates": [ -112.8636111, 47.645 ] } },
{ "type": "Feature", "properties": { "percent(t)": 64.0, "site": "nacimiento", "date": "2017-01-31T00:00:00" }, "geometry": { "type": "Point", "coordinates": [ -121.45, 36.0075 ] } },
{ "type": "Feature", "properties": { "percent(t)": 59.33333333, "site": "upper oso", "date": "2017-10-31T00:00:00" }, "geometry": { "type": "Point", "coordinates": [ -119.7672222, 34.55416667 ] } },
{ "type": "Feature", "properties": { "percent(t)": 75.0, "site": "Blackberry Hill", "date": "2017-12-31T00:00:00" }, "geometry": { "type": "Point", "coordinates": [ -121.9538889, 37.21083333 ] } },
{ "type": "Feature", "properties": { "percent(t)": 99.0, "site": "NOTX_Palo_TX", "date": "2017-09-30T00:00:00" }, "geometry": { "type": "Point", "coordinates": [ -98.55722222, 32.86555556 ] } },
{ "type": "Feature", "properties": { "percent(t)": 101.0, "site": "Keating Cutoff", "date": "2016-06-30T00:00:00" }, "geometry": { "type": "Point", "coordinates": [ -117.6647222, 44.8125 ] } },
{ "type": "Feature", "properties": { "percent(t)": 70.5, "site": "Lake Hughes", "date": "2015-09-30T00:00:00" }, "geometry": { "type": "Point", "coordinates": [ -118.5613889, 34.54333333 ] } },
{ "type": "Feature", "properties": { "percent(t)": 101.0, "site": "NOTX_Palo_TX", "date": "2016-12-31T00:00:00" }, "geometry": { "type": "Point", "coordinates": [ -98.55722222, 32.86555556 ] } },
{ "type": "Feature", "properties": { "percent(t)": 104.0, "site": "D11_Guanella_Pass", "date": "2018-09-30T00:00:00" }, "geometry": { "type": "Point", "coordinates": [ -105.7305556, 39.52333333 ] } },
{ "type": "Feature", "properties": { "percent(t)": 147.1666667, "site": "Hall Creek", "date": "2018-05-31T00:00:00" }, "geometry": { "type": "Point", "coordinates": [ -111.7711111, 46.31694444 ] } },
{ "type": "Feature", "properties": { "percent(t)": 90.0, "site": "RMV", "date": "2018-05-31T00:00:00" }, "geometry": { "type": "Point", "coordinates": [ -117.5166667, 33.5 ] } },
{ "type": "Feature", "properties": { "percent(t)": 63.75, "site": "Muskrat", "date": "2017-09-30T00:00:00" }, "geometry": { "type": "Point", "coordinates": [ -112.6719444, 40.62805556 ] } },
{ "type": "Feature", "properties": { "percent(t)": 104.5, "site": "South Canyon", "date": "2016-07-31T00:00:00" }, "geometry": { "type": "Point", "coordinates": [ -112.6916667, 38.30694444 ] } },
{ "type": "Feature", "properties": { "percent(t)": 102.25, "site": "Sonora", "date": "2017-07-31T00:00:00" }, "geometry": { "type": "Point", "coordinates": [ -120.3516667, 38.00333333 ] } },
{ "type": "Feature", "properties": { "percent(t)": 118.0, "site": "NOTX_Hood_TX", "date": "2017-05-31T00:00:00" }, "geometry": { "type": "Point", "coordinates": [ -97.82416667, 32.45777778 ] } },
{ "type": "Feature", "properties": { "percent(t)": 108.5, "site": "Hall Creek", "date": "2018-08-31T00:00:00" }, "geometry": { "type": "Point", "coordinates": [ -108.4475, 42.65111111 ] } },
{ "type": "Feature", "properties": { "percent(t)": 68.5, "site": "Bitter Canyon, Castaic", "date": "2016-06-30T00:00:00" }, "geometry": { "type": "Point", "coordinates": [ -118.5944444, 34.51 ] } },
{ "type": "Feature", "properties": { "percent(t)": 128.0, "site": "D11_Miller_Gulch", "date": "2015-07-31T00:00:00" }, "geometry": { "type": "Point", "coordinates": [ -105.34, 39.37388889 ] } },
{ "type": "Feature", "properties": { "percent(t)": 108.0, "site": "NOTX_Palo_TX", "date": "2016-06-30T00:00:00" }, "geometry": { "type": "Point", "coordinates": [ -98.55722222, 32.86555556 ] } },
{ "type": "Feature", "properties": { "percent(t)": 119.5, "site": "Tumalo Ridge", "date": "2018-06-30T00:00:00" }, "geometry": { "type": "Point", "coordinates": [ -121.4041667, 44.04638889 ] } },
{ "type": "Feature", "properties": { "percent(t)": 71.33333333, "site": "Lake Hughes", "date": "2015-08-31T00:00:00" }, "geometry": { "type": "Point", "coordinates": [ -118.5613889, 34.54333333 ] } },
{ "type": "Feature", "properties": { "percent(t)": 65.33333333, "site": "upper oso", "date": "2016-07-31T00:00:00" }, "geometry": { "type": "Point", "coordinates": [ -119.7672222, 34.55416667 ] } },
{ "type": "Feature", "properties": { "percent(t)": 58.66666667, "site": "Blackberry Hill", "date": "2018-10-31T00:00:00" }, "geometry": { "type": "Point", "coordinates": [ -121.9538889, 37.21083333 ] } },
{ "type": "Feature", "properties": { "percent(t)": 102.5, "site": "NOTX_Palo_TX", "date": "2017-12-31T00:00:00" }, "geometry": { "type": "Point", "coordinates": [ -98.55722222, 32.86555556 ] } },
{ "type": "Feature", "properties": { "percent(t)": 110.0, "site": "Benchmark", "date": "2016-09-30T00:00:00" }, "geometry": { "type": "Point", "coordinates": [ -112.8636111, 47.645 ] } },
{ "type": "Feature", "properties": { "percent(t)": 59.0, "site": "nacimiento", "date": "2016-10-31T00:00:00" }, "geometry": { "type": "Point", "coordinates": [ -121.45, 36.0075 ] } },
{ "type": "Feature", "properties": { "percent(t)": 137.375, "site": "Black Cedar", "date": "2017-06-30T00:00:00" }, "geometry": { "type": "Point", "coordinates": [ -112.2394444, 38.97916667 ] } },
{ "type": "Feature", "properties": { "percent(t)": 130.0, "site": "LNF Mayhill", "date": "2017-07-31T00:00:00" }, "geometry": { "type": "Point", "coordinates": [ -105.4627778, 32.92111111 ] } },
{ "type": "Feature", "properties": { "percent(t)": 81.0, "site": "Morgan Creek", "date": "2018-09-30T00:00:00" }, "geometry": { "type": "Point", "coordinates": [ -114.2283333, 44.66833333 ] } },
{ "type": "Feature", "properties": { "percent(t)": 77.75, "site": "Sonora", "date": "2018-07-31T00:00:00" }, "geometry": { "type": "Point", "coordinates": [ -120.3516667, 38.00333333 ] } },
{ "type": "Feature", "properties": { "percent(t)": 95.75, "site": "Hall Creek", "date": "2017-10-31T00:00:00" }, "geometry": { "type": "Point", "coordinates": [ -111.7711111, 46.31694444 ] } },
{ "type": "Feature", "properties": { "percent(t)": 110.0, "site": "Lookout Mtn", "date": "2018-10-31T00:00:00" }, "geometry": { "type": "Point", "coordinates": [ -107.2972222, 39.54388889 ] } },
{ "type": "Feature", "properties": { "percent(t)": 126.5, "site": "LNF Smokey Bear", "date": "2017-01-31T00:00:00" }, "geometry": { "type": "Point", "coordinates": [ -105.6763889, 33.35055556 ] } },
{ "type": "Feature", "properties": { "percent(t)": 117.5, "site": "Mt. Baldy Village", "date": "2018-06-30T00:00:00" }, "geometry": { "type": "Point", "coordinates": [ -117.6638889, 34.23388889 ] } },
{ "type": "Feature", "properties": { "percent(t)": 88.25, "site": "Clayton Ranch", "date": "2016-06-30T00:00:00" }, "geometry": { "type": "Point", "coordinates": [ -121.8516667, 37.91361111 ] } },
{ "type": "Feature", "properties": { "percent(t)": 77.0, "site": "NOTX_Hood_TX", "date": "2016-12-31T00:00:00" }, "geometry": { "type": "Point", "coordinates": [ -97.82416667, 32.45777778 ] } },
{ "type": "Feature", "properties": { "percent(t)": 88.5, "site": "Weed Mill Site", "date": "2017-05-31T00:00:00" }, "geometry": { "type": "Point", "coordinates": [ -122.3572222, 41.43527778 ] } },
{ "type": "Feature", "properties": { "percent(t)": 127.0, "site": "Mt. Baldy Village", "date": "2016-06-30T00:00:00" }, "geometry": { "type": "Point", "coordinates": [ -117.6638889, 34.23388889 ] } },
{ "type": "Feature", "properties": { "percent(t)": 154.0, "site": "Lewis Canyon", "date": "2016-06-30T00:00:00" }, "geometry": { "type": "Point", "coordinates": [ -116.88, 40.47222222 ] } },
{ "type": "Feature", "properties": { "percent(t)": 151.8333333, "site": "Hall Creek", "date": "2017-06-30T00:00:00" }, "geometry": { "type": "Point", "coordinates": [ -108.4475, 42.65111111 ] } },
{ "type": "Feature", "properties": { "percent(t)": 88.75, "site": "D11_Miller_Gulch", "date": "2017-06-30T00:00:00" }, "geometry": { "type": "Point", "coordinates": [ -105.34, 39.37388889 ] } },
{ "type": "Feature", "properties": { "percent(t)": 115.8888889, "site": "LNF Smokey Bear", "date": "2015-06-30T00:00:00" }, "geometry": { "type": "Point", "coordinates": [ -105.6763889, 33.35055556 ] } },
{ "type": "Feature", "properties": { "percent(t)": 85.33333333, "site": "Muskrat", "date": "2017-07-31T00:00:00" }, "geometry": { "type": "Point", "coordinates": [ -112.6719444, 40.62805556 ] } },
{ "type": "Feature", "properties": { "percent(t)": 87.0, "site": "South Canyon", "date": "2016-08-31T00:00:00" }, "geometry": { "type": "Point", "coordinates": [ -112.6916667, 38.30694444 ] } },
{ "type": "Feature", "properties": { "percent(t)": 122.3333333, "site": "Dubois", "date": "2018-07-31T00:00:00" }, "geometry": { "type": "Point", "coordinates": [ -112.2330556, 44.0675 ] } },
{ "type": "Feature", "properties": { "percent(t)": 72.75, "site": "Clayton Ranch", "date": "2015-06-30T00:00:00" }, "geometry": { "type": "Point", "coordinates": [ -121.8516667, 37.91361111 ] } },
{ "type": "Feature", "properties": { "percent(t)": 67.75, "site": "RMV", "date": "2017-12-31T00:00:00" }, "geometry": { "type": "Point", "coordinates": [ -117.5166667, 33.5 ] } },
{ "type": "Feature", "properties": { "percent(t)": 72.33333333, "site": "Los Alamos", "date": "2016-11-30T00:00:00" }, "geometry": { "type": "Point", "coordinates": [ -118.8186111, 34.70138889 ] } },
{ "type": "Feature", "properties": { "percent(t)": 101.0, "site": "Mt. Baldy Village", "date": "2017-07-31T00:00:00" }, "geometry": { "type": "Point", "coordinates": [ -117.6638889, 34.23388889 ] } },
{ "type": "Feature", "properties": { "percent(t)": 100.75, "site": "Deep Creek", "date": "2017-07-31T00:00:00" }, "geometry": { "type": "Point", "coordinates": [ -111.1522222, 46.34472222 ] } },
{ "type": "Feature", "properties": { "percent(t)": 69.625, "site": "Bitter Canyon, Castaic", "date": "2015-08-31T00:00:00" }, "geometry": { "type": "Point", "coordinates": [ -118.5944444, 34.51 ] } },
{ "type": "Feature", "properties": { "percent(t)": 161.0, "site": "Keating Cutoff", "date": "2017-06-30T00:00:00" }, "geometry": { "type": "Point", "coordinates": [ -117.6647222, 44.8125 ] } },
{ "type": "Feature", "properties": { "percent(t)": 115.5, "site": "NOTX_Palo_TX", "date": "2017-05-31T00:00:00" }, "geometry": { "type": "Point", "coordinates": [ -98.55722222, 32.86555556 ] } },
{ "type": "Feature", "properties": { "percent(t)": 57.66666667, "site": "upper oso", "date": "2017-12-31T00:00:00" }, "geometry": { "type": "Point", "coordinates": [ -119.7672222, 34.55416667 ] } },
{ "type": "Feature", "properties": { "percent(t)": 180.1666667, "site": "Grass Mesa", "date": "2017-06-30T00:00:00" }, "geometry": { "type": "Point", "coordinates": [ -107.7847222, 39.45361111 ] } },
{ "type": "Feature", "properties": { "percent(t)": 87.0, "site": "Big Indian", "date": "2016-12-31T00:00:00" }, "geometry": { "type": "Point", "coordinates": [ -109.2736111, 38.22138889 ] } },
{ "type": "Feature", "properties": { "percent(t)": 70.66666667, "site": "Los Alamos", "date": "2016-10-31T00:00:00" }, "geometry": { "type": "Point", "coordinates": [ -118.8186111, 34.70138889 ] } },
{ "type": "Feature", "properties": { "percent(t)": 85.0, "site": "Mt. Baldy Village", "date": "2018-01-31T00:00:00" }, "geometry": { "type": "Point", "coordinates": [ -117.6638889, 34.23388889 ] } },
{ "type": "Feature", "properties": { "percent(t)": 99.5, "site": "Deep Creek", "date": "2017-08-31T00:00:00" }, "geometry": { "type": "Point", "coordinates": [ -111.1522222, 46.34472222 ] } },
{ "type": "Feature", "properties": { "percent(t)": 61.25, "site": "Clayton Ranch", "date": "2015-11-30T00:00:00" }, "geometry": { "type": "Point", "coordinates": [ -121.8516667, 37.91361111 ] } },
{ "type": "Feature", "properties": { "percent(t)": 85.5, "site": "RMV", "date": "2017-07-31T00:00:00" }, "geometry": { "type": "Point", "coordinates": [ -117.5166667, 33.5 ] } },
{ "type": "Feature", "properties": { "percent(t)": 97.0, "site": "Dubois", "date": "2017-09-30T00:00:00" }, "geometry": { "type": "Point", "coordinates": [ -112.2330556, 44.0675 ] } },
{ "type": "Feature", "properties": { "percent(t)": 118.6666667, "site": "LNF Smokey Bear", "date": "2016-11-30T00:00:00" }, "geometry": { "type": "Point", "coordinates": [ -105.6763889, 33.35055556 ] } },
{ "type": "Feature", "properties": { "percent(t)": 93.33333333, "site": "Price Rec", "date": "2018-09-30T00:00:00" }, "geometry": { "type": "Point", "coordinates": [ -110.9144444, 39.75916667 ] } },
{ "type": "Feature", "properties": { "percent(t)": 79.625, "site": "Bitter Canyon, Castaic", "date": "2015-06-30T00:00:00" }, "geometry": { "type": "Point", "coordinates": [ -118.5944444, 34.51 ] } },
{ "type": "Feature", "properties": { "percent(t)": 111.25, "site": "D11_Miller_Gulch", "date": "2017-07-31T00:00:00" }, "geometry": { "type": "Point", "coordinates": [ -105.34, 39.37388889 ] } },
{ "type": "Feature", "properties": { "percent(t)": 97.0, "site": "Lewis Canyon", "date": "2015-07-31T00:00:00" }, "geometry": { "type": "Point", "coordinates": [ -116.88, 40.47222222 ] } },
{ "type": "Feature", "properties": { "percent(t)": 97.25, "site": "Hall Creek", "date": "2017-09-30T00:00:00" }, "geometry": { "type": "Point", "coordinates": [ -111.7711111, 46.31694444 ] } },
{ "type": "Feature", "properties": { "percent(t)": 90.0, "site": "Mt. Baldy Village", "date": "2015-11-30T00:00:00" }, "geometry": { "type": "Point", "coordinates": [ -117.6638889, 34.23388889 ] } },
{ "type": "Feature", "properties": { "percent(t)": 147.0, "site": "NETX_Wood_TX", "date": "2018-12-31T00:00:00" }, "geometry": { "type": "Point", "coordinates": [ -95.25194444, 32.76277778 ] } },
{ "type": "Feature", "properties": { "percent(t)": 169.0, "site": "Weed Mill Site", "date": "2015-06-30T00:00:00" }, "geometry": { "type": "Point", "coordinates": [ -122.3572222, 41.43527778 ] } },
{ "type": "Feature", "properties": { "percent(t)": 103.5, "site": "LNF Mayhill", "date": "2018-05-31T00:00:00" }, "geometry": { "type": "Point", "coordinates": [ -105.4627778, 32.92111111 ] } },
{ "type": "Feature", "properties": { "percent(t)": 131.0, "site": "D06_Ute Canyon", "date": "2018-07-31T00:00:00" }, "geometry": { "type": "Point", "coordinates": [ -102.63, 37.06 ] } },
{ "type": "Feature", "properties": { "percent(t)": 70.0, "site": "Blackberry Hill", "date": "2018-12-31T00:00:00" }, "geometry": { "type": "Point", "coordinates": [ -121.9538889, 37.21083333 ] } },
{ "type": "Feature", "properties": { "percent(t)": 87.5, "site": "Hall Creek", "date": "2018-09-30T00:00:00" }, "geometry": { "type": "Point", "coordinates": [ -108.4475, 42.65111111 ] } },
{ "type": "Feature", "properties": { "percent(t)": 140.75, "site": "Bitter Canyon, Castaic", "date": "2016-04-30T00:00:00" }, "geometry": { "type": "Point", "coordinates": [ -118.5944444, 34.51 ] } },
{ "type": "Feature", "properties": { "percent(t)": 99.0, "site": "Three Creek", "date": "2017-08-31T00:00:00" }, "geometry": { "type": "Point", "coordinates": [ -115.1822222, 42.0775 ] } },
{ "type": "Feature", "properties": { "percent(t)": 116.0, "site": "Baker Park", "date": "2015-09-30T00:00:00" }, "geometry": { "type": "Point", "coordinates": [ -103.4241667, 43.97944444 ] } },
{ "type": "Feature", "properties": { "percent(t)": 110.0, "site": "D06_Ute Canyon", "date": "2016-03-31T00:00:00" }, "geometry": { "type": "Point", "coordinates": [ -102.63, 37.06 ] } },
{ "type": "Feature", "properties": { "percent(t)": 123.5, "site": "Trippet Ranch, Topanga", "date": "2018-12-31T00:00:00" }, "geometry": { "type": "Point", "coordinates": [ -118.5977778, 34.09333333 ] } },
{ "type": "Feature", "properties": { "percent(t)": 105.875, "site": "PNF White Spar", "date": "2017-07-31T00:00:00" }, "geometry": { "type": "Point", "coordinates": [ -112.5477778, 34.44388889 ] } },
{ "type": "Feature", "properties": { "percent(t)": 134.75, "site": "Oak Knoll", "date": "2015-06-30T00:00:00" }, "geometry": { "type": "Point", "coordinates": [ -122.8502778, 41.83861111 ] } },
{ "type": "Feature", "properties": { "percent(t)": 82.0, "site": "RGFO - Four Mile", "date": "2017-07-31T00:00:00" }, "geometry": { "type": "Point", "coordinates": [ -105.2038889, 38.54055556 ] } },
{ "type": "Feature", "properties": { "percent(t)": 96.0, "site": "San Marcos", "date": "2018-06-30T00:00:00" }, "geometry": { "type": "Point", "coordinates": [ -119.8055556, 34.51194444 ] } },
{ "type": "Feature", "properties": { "percent(t)": 50.75, "site": "Hastings Old Growth", "date": "2016-09-30T00:00:00" }, "geometry": { "type": "Point", "coordinates": [ -121.5502778, 36.38472222 ] } },
{ "type": "Feature", "properties": { "percent(t)": 93.5, "site": "ROPL_Taylor_TX", "date": "2017-12-31T00:00:00" }, "geometry": { "type": "Point", "coordinates": [ -100.09, 32.35277778 ] } },
{ "type": "Feature", "properties": { "percent(t)": 83.5, "site": "Curlew", "date": "2018-09-30T00:00:00" }, "geometry": { "type": "Point", "coordinates": [ -112.5802778, 42.19611111 ] } },
{ "type": "Feature", "properties": { "percent(t)": 193.0, "site": "D07_Cimarron River", "date": "2016-06-30T00:00:00" }, "geometry": { "type": "Point", "coordinates": [ -101.9038889, 37.12055556 ] } },
{ "type": "Feature", "properties": { "percent(t)": 104.0, "site": "HILL_Gillespie_TX", "date": "2015-11-30T00:00:00" }, "geometry": { "type": "Point", "coordinates": [ -98.62888889, 30.2625 ] } },
{ "type": "Feature", "properties": { "percent(t)": 89.0, "site": "Wild West", "date": "2017-09-30T00:00:00" }, "geometry": { "type": "Point", "coordinates": [ -116.7775, 43.87055556 ] } },
{ "type": "Feature", "properties": { "percent(t)": 139.0, "site": "Lucky Springs", "date": "2018-05-31T00:00:00" }, "geometry": { "type": "Point", "coordinates": [ -115.9355556, 39.46222222 ] } },
{ "type": "Feature", "properties": { "percent(t)": 138.5, "site": "Notch Butte", "date": "2018-07-31T00:00:00" }, "geometry": { "type": "Point", "coordinates": [ -114.4361111, 42.87694444 ] } },
{ "type": "Feature", "properties": { "percent(t)": 95.5, "site": "HILL_SanSaba_TX", "date": "2015-11-30T00:00:00" }, "geometry": { "type": "Point", "coordinates": [ -98.49944444, 31.05305556 ] } },
{ "type": "Feature", "properties": { "percent(t)": 66.16666667, "site": "San Marcos", "date": "2016-07-31T00:00:00" }, "geometry": { "type": "Point", "coordinates": [ -119.8055556, 34.51194444 ] } },
{ "type": "Feature", "properties": { "percent(t)": 82.5, "site": "Oak Knoll", "date": "2017-10-31T00:00:00" }, "geometry": { "type": "Point", "coordinates": [ -122.8502778, 41.83861111 ] } },
{ "type": "Feature", "properties": { "percent(t)": 191.5, "site": "Fortynine C2A", "date": "2017-06-30T00:00:00" }, "geometry": { "type": "Point", "coordinates": [ -119.9744444, 41.60027778 ] } },
{ "type": "Feature", "properties": { "percent(t)": 60.5, "site": "Tapo Canyon, Simi Valley", "date": "2018-01-31T00:00:00" }, "geometry": { "type": "Point", "coordinates": [ -118.7102778, 34.30638889 ] } },
{ "type": "Feature", "properties": { "percent(t)": 84.5, "site": "Simco", "date": "2016-09-30T00:00:00" }, "geometry": { "type": "Point", "coordinates": [ -115.9663889, 43.08833333 ] } },
{ "type": "Feature", "properties": { "percent(t)": 93.5, "site": "RGFO - Four Mile", "date": "2017-08-31T00:00:00" }, "geometry": { "type": "Point", "coordinates": [ -105.2038889, 38.54055556 ] } },
{ "type": "Feature", "properties": { "percent(t)": 53.33333333, "site": "Rose Valley", "date": "2016-08-31T00:00:00" }, "geometry": { "type": "Point", "coordinates": [ -119.1763889, 34.55055556 ] } },
{ "type": "Feature", "properties": { "percent(t)": 55.16666667, "site": "Smith Ranch", "date": "2018-08-31T00:00:00" }, "geometry": { "type": "Point", "coordinates": [ -121.1608333, 36.54472222 ] } },
{ "type": "Feature", "properties": { "percent(t)": 88.5, "site": "RGFO - Four Mile", "date": "2018-08-31T00:00:00" }, "geometry": { "type": "Point", "coordinates": [ -105.2038889, 38.54055556 ] } },
{ "type": "Feature", "properties": { "percent(t)": 57.75, "site": "Trippet Ranch, Topanga", "date": "2018-09-30T00:00:00" }, "geometry": { "type": "Point", "coordinates": [ -118.5977778, 34.09333333 ] } },
{ "type": "Feature", "properties": { "percent(t)": 205.0, "site": "Fortynine C2A", "date": "2017-05-31T00:00:00" }, "geometry": { "type": "Point", "coordinates": [ -121.0152778, 41.55055556 ] } },
{ "type": "Feature", "properties": { "percent(t)": 104.5, "site": "Tapo Canyon, Simi Valley", "date": "2018-05-31T00:00:00" }, "geometry": { "type": "Point", "coordinates": [ -118.7102778, 34.30638889 ] } },
{ "type": "Feature", "properties": { "percent(t)": 75.33333333, "site": "San Marcos", "date": "2017-01-31T00:00:00" }, "geometry": { "type": "Point", "coordinates": [ -119.8055556, 34.51194444 ] } },
{ "type": "Feature", "properties": { "percent(t)": 136.25, "site": "Oak Knoll", "date": "2017-05-31T00:00:00" }, "geometry": { "type": "Point", "coordinates": [ -122.8502778, 41.83861111 ] } },
{ "type": "Feature", "properties": { "percent(t)": 156.0, "site": "Lucky Springs", "date": "2017-07-31T00:00:00" }, "geometry": { "type": "Point", "coordinates": [ -115.9355556, 39.46222222 ] } },
{ "type": "Feature", "properties": { "percent(t)": 186.5, "site": "Ohio Gulch", "date": "2015-06-30T00:00:00" }, "geometry": { "type": "Point", "coordinates": [ -114.2997222, 43.58972222 ] } },
{ "type": "Feature", "properties": { "percent(t)": 126.5, "site": "HILL_SanSaba_TX", "date": "2017-05-31T00:00:00" }, "geometry": { "type": "Point", "coordinates": [ -98.49944444, 31.05305556 ] } },
{ "type": "Feature", "properties": { "percent(t)": 87.0, "site": "Curlew", "date": "2016-09-30T00:00:00" }, "geometry": { "type": "Point", "coordinates": [ -112.5802778, 42.19611111 ] } },
{ "type": "Feature", "properties": { "percent(t)": 63.5, "site": "Los Alamos", "date": "2016-06-30T00:00:00" }, "geometry": { "type": "Point", "coordinates": [ -118.8186111, 34.70138889 ] } },
{ "type": "Feature", "properties": { "percent(t)": 119.0, "site": "HILL_Gillespie_TX", "date": "2015-06-30T00:00:00" }, "geometry": { "type": "Point", "coordinates": [ -98.62888889, 30.2625 ] } },
{ "type": "Feature", "properties": { "percent(t)": 93.5, "site": "Curlew", "date": "2018-08-31T00:00:00" }, "geometry": { "type": "Point", "coordinates": [ -112.5802778, 42.19611111 ] } },
{ "type": "Feature", "properties": { "percent(t)": 113.0, "site": "D07_Cimarron River", "date": "2015-06-30T00:00:00" }, "geometry": { "type": "Point", "coordinates": [ -101.9038889, 37.12055556 ] } },
{ "type": "Feature", "properties": { "percent(t)": 114.3333333, "site": "ROPL_Taylor_TX", "date": "2018-06-30T00:00:00" }, "geometry": { "type": "Point", "coordinates": [ -100.09, 32.35277778 ] } },
{ "type": "Feature", "properties": { "percent(t)": 64.0, "site": "San Marcos", "date": "2017-12-31T00:00:00" }, "geometry": { "type": "Point", "coordinates": [ -119.8055556, 34.51194444 ] } },
{ "type": "Feature", "properties": { "percent(t)": 43.75, "site": "Hastings Old Growth", "date": "2017-10-31T00:00:00" }, "geometry": { "type": "Point", "coordinates": [ -121.5502778, 36.38472222 ] } },
{ "type": "Feature", "properties": { "percent(t)": 101.25, "site": "Oak Knoll", "date": "2018-06-30T00:00:00" }, "geometry": { "type": "Point", "coordinates": [ -122.8502778, 41.83861111 ] } },
{ "type": "Feature", "properties": { "percent(t)": 73.16666667, "site": "Los Alamos", "date": "2015-06-30T00:00:00" }, "geometry": { "type": "Point", "coordinates": [ -118.8186111, 34.70138889 ] } },
{ "type": "Feature", "properties": { "percent(t)": 190.3333333, "site": "Pole Creek", "date": "2017-05-31T00:00:00" }, "geometry": { "type": "Point", "coordinates": [ -117.9438889, 43.80111111 ] } },
{ "type": "Feature", "properties": { "percent(t)": 111.5, "site": "D07_Cimarron River", "date": "2016-09-30T00:00:00" }, "geometry": { "type": "Point", "coordinates": [ -101.9038889, 37.12055556 ] } },
{ "type": "Feature", "properties": { "percent(t)": 113.0, "site": "Gifford", "date": "2016-03-31T00:00:00" }, "geometry": { "type": "Point", "coordinates": [ -120.0763889, 35.10888889 ] } },
{ "type": "Feature", "properties": { "percent(t)": 201.0, "site": "Shoshone Basin", "date": "2017-05-31T00:00:00" }, "geometry": { "type": "Point", "coordinates": [ -114.4922222, 42.18805556 ] } },
{ "type": "Feature", "properties": { "percent(t)": 103.3333333, "site": "McCoy Ridge", "date": "2016-07-31T00:00:00" }, "geometry": { "type": "Point", "coordinates": [ -115.9913889, 39.49138889 ] } },
{ "type": "Feature", "properties": { "percent(t)": 143.0, "site": "Prospect", "date": "2018-05-31T00:00:00" }, "geometry": { "type": "Point", "coordinates": [ -106.4805556, 41.09694444 ] } },
{ "type": "Feature", "properties": { "percent(t)": 63.5, "site": "Kuna", "date": "2018-08-31T00:00:00" }, "geometry": { "type": "Point", "coordinates": [ -116.4352778, 43.44222222 ] } },
{ "type": "Feature", "properties": { "percent(t)": 93.0, "site": "PNF Cherry", "date": "2017-08-31T00:00:00" }, "geometry": { "type": "Point", "coordinates": [ -112.0444444, 34.59194444 ] } },
{ "type": "Feature", "properties": { "percent(t)": 84.55555556, "site": "Cow Mountain", "date": "2017-06-30T00:00:00" }, "geometry": { "type": "Point", "coordinates": [ -123.1047222, 39.12833333 ] } },
{ "type": "Feature", "properties": { "percent(t)": 80.0, "site": "Juanita", "date": "2018-09-30T00:00:00" }, "geometry": { "type": "Point", "coordinates": [ -122.1097222, 41.80166667 ] } },
{ "type": "Feature", "properties": { "percent(t)": 64.66666667, "site": "Rose Valley", "date": "2015-09-30T00:00:00" }, "geometry": { "type": "Point", "coordinates": [ -119.1763889, 34.55055556 ] } },
{ "type": "Feature", "properties": { "percent(t)": 118.25, "site": "PNF White Spar", "date": "2017-05-31T00:00:00" }, "geometry": { "type": "Point", "coordinates": [ -112.5477778, 34.44388889 ] } },
{ "type": "Feature", "properties": { "percent(t)": 182.6, "site": "RGPL_Dimmit_TX", "date": "2017-07-31T00:00:00" }, "geometry": { "type": "Point", "coordinates": [ -99.39416667, 28.3 ] } },
{ "type": "Feature", "properties": { "percent(t)": 67.0, "site": "Smith Ranch", "date": "2017-07-31T00:00:00" }, "geometry": { "type": "Point", "coordinates": [ -121.1608333, 36.54472222 ] } },
{ "type": "Feature", "properties": { "percent(t)": 107.3333333, "site": "HILL_Edwards_TX", "date": "2018-06-30T00:00:00" }, "geometry": { "type": "Point", "coordinates": [ -100.4730556, 29.60916667 ] } },
{ "type": "Feature", "properties": { "percent(t)": 196.5, "site": "Three Creek", "date": "2017-06-30T00:00:00" }, "geometry": { "type": "Point", "coordinates": [ -115.1822222, 42.0775 ] } },
{ "type": "Feature", "properties": { "percent(t)": 99.0, "site": "Baker Park", "date": "2015-06-30T00:00:00" }, "geometry": { "type": "Point", "coordinates": [ -103.4241667, 43.97944444 ] } },
{ "type": "Feature", "properties": { "percent(t)": 93.0, "site": "D06_Ute Canyon", "date": "2016-08-31T00:00:00" }, "geometry": { "type": "Point", "coordinates": [ -102.63, 37.06 ] } },
{ "type": "Feature", "properties": { "percent(t)": 80.5, "site": "Hastings Old Growth", "date": "2018-05-31T00:00:00" }, "geometry": { "type": "Point", "coordinates": [ -121.5502778, 36.38472222 ] } },
{ "type": "Feature", "properties": { "percent(t)": 72.66666667, "site": "Gifford", "date": "2016-01-31T00:00:00" }, "geometry": { "type": "Point", "coordinates": [ -120.0763889, 35.10888889 ] } },
{ "type": "Feature", "properties": { "percent(t)": 95.5, "site": "HILL_SanSaba_TX", "date": "2017-07-31T00:00:00" }, "geometry": { "type": "Point", "coordinates": [ -98.49944444, 31.05305556 ] } },
{ "type": "Feature", "properties": { "percent(t)": 107.5, "site": "Curlew", "date": "2017-09-30T00:00:00" }, "geometry": { "type": "Point", "coordinates": [ -112.5802778, 42.19611111 ] } },
{ "type": "Feature", "properties": { "percent(t)": 112.6666667, "site": "Los Alamos", "date": "2016-03-31T00:00:00" }, "geometry": { "type": "Point", "coordinates": [ -118.8186111, 34.70138889 ] } },
{ "type": "Feature", "properties": { "percent(t)": 94.0, "site": "Pole Creek", "date": "2017-08-31T00:00:00" }, "geometry": { "type": "Point", "coordinates": [ -117.9438889, 43.80111111 ] } },
{ "type": "Feature", "properties": { "percent(t)": 70.0, "site": "San Marcos", "date": "2017-08-31T00:00:00" }, "geometry": { "type": "Point", "coordinates": [ -119.8055556, 34.51194444 ] } },
{ "type": "Feature", "properties": { "percent(t)": 92.0, "site": "D07_Cimarron South", "date": "2015-07-31T00:00:00" }, "geometry": { "type": "Point", "coordinates": [ -101.6708333, 37.07361111 ] } },
{ "type": "Feature", "properties": { "percent(t)": 96.0, "site": "HILL_Edwards_TX", "date": "2017-12-31T00:00:00" }, "geometry": { "type": "Point", "coordinates": [ -100.4730556, 29.60916667 ] } },
{ "type": "Feature", "properties": { "percent(t)": 114.5, "site": "Shoshone Basin", "date": "2018-07-31T00:00:00" }, "geometry": { "type": "Point", "coordinates": [ -114.4922222, 42.18805556 ] } },
{ "type": "Feature", "properties": { "percent(t)": 80.33333333, "site": "Smith Ranch", "date": "2018-06-30T00:00:00" }, "geometry": { "type": "Point", "coordinates": [ -121.1608333, 36.54472222 ] } },
{ "type": "Feature", "properties": { "percent(t)": 89.33333333, "site": "PNF Cherry", "date": "2018-10-31T00:00:00" }, "geometry": { "type": "Point", "coordinates": [ -112.0444444, 34.59194444 ] } },
{ "type": "Feature", "properties": { "percent(t)": 197.8, "site": "RGPL_Dimmit_TX", "date": "2017-08-31T00:00:00" }, "geometry": { "type": "Point", "coordinates": [ -99.39416667, 28.3 ] } },
{ "type": "Feature", "properties": { "percent(t)": 103.5, "site": "Juanita", "date": "2017-06-30T00:00:00" }, "geometry": { "type": "Point", "coordinates": [ -122.1097222, 41.80166667 ] } },
{ "type": "Feature", "properties": { "percent(t)": 107.3333333, "site": "Rose Valley", "date": "2016-06-30T00:00:00" }, "geometry": { "type": "Point", "coordinates": [ -119.1763889, 34.55055556 ] } },
{ "type": "Feature", "properties": { "percent(t)": 78.0, "site": "PNF Cherry", "date": "2018-01-31T00:00:00" }, "geometry": { "type": "Point", "coordinates": [ -112.0444444, 34.59194444 ] } },
{ "type": "Feature", "properties": { "percent(t)": 83.0, "site": "Cow Mountain", "date": "2015-06-30T00:00:00" }, "geometry": { "type": "Point", "coordinates": [ -123.1047222, 39.12833333 ] } },
{ "type": "Feature", "properties": { "percent(t)": 175.5, "site": "Prospect", "date": "2018-06-30T00:00:00" }, "geometry": { "type": "Point", "coordinates": [ -106.4805556, 41.09694444 ] } },
{ "type": "Feature", "properties": { "percent(t)": 72.5, "site": "Simco", "date": "2016-07-31T00:00:00" }, "geometry": { "type": "Point", "coordinates": [ -115.9663889, 43.08833333 ] } },
{ "type": "Feature", "properties": { "percent(t)": 193.0, "site": "Shoshone Basin", "date": "2017-06-30T00:00:00" }, "geometry": { "type": "Point", "coordinates": [ -114.4922222, 42.18805556 ] } },
{ "type": "Feature", "properties": { "percent(t)": 85.66666667, "site": "McCoy Ridge", "date": "2016-06-30T00:00:00" }, "geometry": { "type": "Point", "coordinates": [ -115.9913889, 39.49138889 ] } },
{ "type": "Feature", "properties": { "percent(t)": 170.0, "site": "Panter", "date": "2018-06-30T00:00:00" }, "geometry": { "type": "Point", "coordinates": [ -117.5752778, 40.54638889 ] } },
{ "type": "Feature", "properties": { "percent(t)": 118.0, "site": "CNTX_McCl_TX", "date": "2017-07-31T00:00:00" }, "geometry": { "type": "Point", "coordinates": [ -97.47, 31.33 ] } },
{ "type": "Feature", "properties": { "percent(t)": 72.0, "site": "Glendora Ridge, Glendora", "date": "2017-08-31T00:00:00" }, "geometry": { "type": "Point", "coordinates": [ -117.865, 34.16527778 ] } },
{ "type": "Feature", "properties": { "percent(t)": 104.5, "site": "D03_Willis_Creek", "date": "2018-09-30T00:00:00" }, "geometry": { "type": "Point", "coordinates": [ -105.0561111, 38.00277778 ] } },
{ "type": "Feature", "properties": { "percent(t)": 100.0, "site": "Corralitos New Growth", "date": "2016-07-31T00:00:00" }, "geometry": { "type": "Point", "coordinates": [ -121.8155556, 37.00416667 ] } },
{ "type": "Feature", "properties": { "percent(t)": 133.75, "site": "SETX_Newt_TX", "date": "2017-10-31T00:00:00" }, "geometry": { "type": "Point", "coordinates": [ -93.82277778, 30.62833333 ] } },
{ "type": "Feature", "properties": { "percent(t)": 75.0, "site": "Mt. Woodson Station", "date": "2018-05-31T00:00:00" }, "geometry": { "type": "Point", "coordinates": [ -116.9613889, 33.00277778 ] } },
{ "type": "Feature", "properties": { "percent(t)": 72.0, "site": "Tyler Foote", "date": "2018-09-30T00:00:00" }, "geometry": { "type": "Point", "coordinates": [ -121.1122222, 39.33055556 ] } },
{ "type": "Feature", "properties": { "percent(t)": 64.0, "site": "Tapo Canyon, Simi Valley", "date": "2015-10-31T00:00:00" }, "geometry": { "type": "Point", "coordinates": [ -118.7102778, 34.30638889 ] } },
{ "type": "Feature", "properties": { "percent(t)": 117.6666667, "site": "Reyes Creek", "date": "2016-03-31T00:00:00" }, "geometry": { "type": "Point", "coordinates": [ -119.3097222, 34.67833333 ] } },
{ "type": "Feature", "properties": { "percent(t)": 94.5, "site": "Six Shooter", "date": "2017-09-30T00:00:00" }, "geometry": { "type": "Point", "coordinates": [ -121.7119444, 41.71944444 ] } },
{ "type": "Feature", "properties": { "percent(t)": 83.33333333, "site": "Lopez Lake", "date": "2018-08-31T00:00:00" }, "geometry": { "type": "Point", "coordinates": [ -120.445, 35.19333333 ] } },
{ "type": "Feature", "properties": { "percent(t)": 80.0, "site": "Panter", "date": "2017-08-31T00:00:00" }, "geometry": { "type": "Point", "coordinates": [ -117.5752778, 40.54638889 ] } },
{ "type": "Feature", "properties": { "percent(t)": 174.0, "site": "Sunset Heights", "date": "2018-05-31T00:00:00" }, "geometry": { "type": "Point", "coordinates": [ -113.8502778, 45.10916667 ] } },
{ "type": "Feature", "properties": { "percent(t)": 70.0, "site": "Blackstone", "date": "2017-09-30T00:00:00" }, "geometry": { "type": "Point", "coordinates": [ -115.8855556, 42.44111111 ] } },
{ "type": "Feature", "properties": { "percent(t)": 52.0, "site": "Trippet Ranch, Topanga", "date": "2016-11-30T00:00:00" }, "geometry": { "type": "Point", "coordinates": [ -118.5977778, 34.09333333 ] } },
{ "type": "Feature", "properties": { "percent(t)": 104.0, "site": "HILL_Edwards_TX", "date": "2016-08-31T00:00:00" }, "geometry": { "type": "Point", "coordinates": [ -100.4730556, 29.60916667 ] } },
{ "type": "Feature", "properties": { "percent(t)": 154.0, "site": "Shirttail", "date": "2017-07-31T00:00:00" }, "geometry": { "type": "Point", "coordinates": [ -117.4186111, 44.53 ] } },
{ "type": "Feature", "properties": { "percent(t)": 89.0, "site": "New Jungo", "date": "2017-11-30T00:00:00" }, "geometry": { "type": "Point", "coordinates": [ -117.8022222, 40.96833333 ] } },
{ "type": "Feature", "properties": { "percent(t)": 82.0, "site": "Reader Ranch", "date": "2018-08-31T00:00:00" }, "geometry": { "type": "Point", "coordinates": [ -121.1097222, 39.30277778 ] } },
{ "type": "Feature", "properties": { "percent(t)": 121.5, "site": "Keeney", "date": "2015-07-31T00:00:00" }, "geometry": { "type": "Point", "coordinates": [ -117.1783333, 43.91333333 ] } },
{ "type": "Feature", "properties": { "percent(t)": 111.5, "site": "Blackstone", "date": "2018-07-31T00:00:00" }, "geometry": { "type": "Point", "coordinates": [ -115.8855556, 42.44111111 ] } },
{ "type": "Feature", "properties": { "percent(t)": 92.0, "site": "Palisade", "date": "2018-10-31T00:00:00" }, "geometry": { "type": "Point", "coordinates": [ -116.1633333, 40.615 ] } },
{ "type": "Feature", "properties": { "percent(t)": 73.5, "site": "Balanced Rock", "date": "2016-09-30T00:00:00" }, "geometry": { "type": "Point", "coordinates": [ -115.0025, 42.48083333 ] } },
{ "type": "Feature", "properties": { "percent(t)": 109.8333333, "site": "Reyes Creek", "date": "2016-04-30T00:00:00" }, "geometry": { "type": "Point", "coordinates": [ -119.3097222, 34.67833333 ] } },
{ "type": "Feature", "properties": { "percent(t)": 92.5, "site": "Six Shooter", "date": "2017-08-31T00:00:00" }, "geometry": { "type": "Point", "coordinates": [ -121.7119444, 41.71944444 ] } },
{ "type": "Feature", "properties": { "percent(t)": 84.66666667, "site": "Lopez Lake", "date": "2017-11-30T00:00:00" }, "geometry": { "type": "Point", "coordinates": [ -120.445, 35.19333333 ] } },
{ "type": "Feature", "properties": { "percent(t)": 100.0, "site": "Tyler Foote", "date": "2018-01-31T00:00:00" }, "geometry": { "type": "Point", "coordinates": [ -121.1122222, 39.33055556 ] } },
{ "type": "Feature", "properties": { "percent(t)": 83.0, "site": "Tapo Canyon, Simi Valley", "date": "2016-04-30T00:00:00" }, "geometry": { "type": "Point", "coordinates": [ -118.7102778, 34.30638889 ] } },
{ "type": "Feature", "properties": { "percent(t)": 52.5, "site": "Mt. Woodson Station", "date": "2018-10-31T00:00:00" }, "geometry": { "type": "Point", "coordinates": [ -116.9613889, 33.00277778 ] } },
{ "type": "Feature", "properties": { "percent(t)": 133.0, "site": "Corralitos New Growth", "date": "2017-06-30T00:00:00" }, "geometry": { "type": "Point", "coordinates": [ -121.8155556, 37.00416667 ] } },
{ "type": "Feature", "properties": { "percent(t)": 138.5, "site": "SETX_Newt_TX", "date": "2018-08-31T00:00:00" }, "geometry": { "type": "Point", "coordinates": [ -93.82277778, 30.62833333 ] } },
{ "type": "Feature", "properties": { "percent(t)": 100.8333333, "site": "D03_Willis_Creek", "date": "2018-08-31T00:00:00" }, "geometry": { "type": "Point", "coordinates": [ -105.0561111, 38.00277778 ] } },
{ "type": "Feature", "properties": { "percent(t)": 91.0, "site": "Panter", "date": "2018-07-31T00:00:00" }, "geometry": { "type": "Point", "coordinates": [ -117.5752778, 40.54638889 ] } },
{ "type": "Feature", "properties": { "percent(t)": 112.0, "site": "CNTX_McCl_TX", "date": "2016-11-30T00:00:00" }, "geometry": { "type": "Point", "coordinates": [ -97.47, 31.33 ] } },
{ "type": "Feature", "properties": { "percent(t)": 61.0, "site": "Tapo Canyon, Simi Valley", "date": "2015-08-31T00:00:00" }, "geometry": { "type": "Point", "coordinates": [ -118.7102778, 34.30638889 ] } },
{ "type": "Feature", "properties": { "percent(t)": 117.0, "site": "Sunset Heights", "date": "2017-07-31T00:00:00" }, "geometry": { "type": "Point", "coordinates": [ -113.8502778, 45.10916667 ] } },
{ "type": "Feature", "properties": { "percent(t)": 92.5, "site": "Shirttail", "date": "2018-08-31T00:00:00" }, "geometry": { "type": "Point", "coordinates": [ -117.4186111, 44.53 ] } },
{ "type": "Feature", "properties": { "percent(t)": 192.25, "site": "Trippet Ranch, Topanga", "date": "2016-04-30T00:00:00" }, "geometry": { "type": "Point", "coordinates": [ -118.5977778, 34.09333333 ] } },
{ "type": "Feature", "properties": { "percent(t)": 145.5, "site": "SETX_SAug_TX", "date": "2017-06-30T00:00:00" }, "geometry": { "type": "Point", "coordinates": [ -94.09027778, 31.44166667 ] } },
{ "type": "Feature", "properties": { "percent(t)": 107.0, "site": "McCloud (SHF)", "date": "2017-05-31T00:00:00" }, "geometry": { "type": "Point", "coordinates": [ -122.0544444, 41.29361111 ] } },
{ "type": "Feature", "properties": { "percent(t)": 125.5, "site": "Quincy RD", "date": "2017-07-31T00:00:00" }, "geometry": { "type": "Point", "coordinates": [ -120.9419444, 39.97333333 ] } },
{ "type": "Feature", "properties": { "percent(t)": 65.83333333, "site": "Reyes Creek", "date": "2017-01-31T00:00:00" }, "geometry": { "type": "Point", "coordinates": [ -119.3097222, 34.67833333 ] } },
{ "type": "Feature", "properties": { "percent(t)": 66.5, "site": "Los Robles, Thousand Oaks", "date": "2018-07-31T00:00:00" }, "geometry": { "type": "Point", "coordinates": [ -118.8822222, 34.17166667 ] } },
{ "type": "Feature", "properties": { "percent(t)": 175.0, "site": "SETX_Tylr_TX", "date": "2018-05-31T00:00:00" }, "geometry": { "type": "Point", "coordinates": [ -94.43111111, 30.73972222 ] } },
{ "type": "Feature", "properties": { "percent(t)": 115.25, "site": "Reader Ranch", "date": "2018-06-30T00:00:00" }, "geometry": { "type": "Point", "coordinates": [ -121.1097222, 39.30277778 ] } },
{ "type": "Feature", "properties": { "percent(t)": 186.5, "site": "Hammett", "date": "2017-06-30T00:00:00" }, "geometry": { "type": "Point", "coordinates": [ -115.4569444, 42.96722222 ] } },
{ "type": "Feature", "properties": { "percent(t)": 69.0, "site": "Table Legs Butte", "date": "2018-08-31T00:00:00" }, "geometry": { "type": "Point", "coordinates": [ -112.7894444, 43.41777778 ] } },
{ "type": "Feature", "properties": { "percent(t)": 91.0, "site": "New Jungo", "date": "2017-09-30T00:00:00" }, "geometry": { "type": "Point", "coordinates": [ -117.8022222, 40.96833333 ] } },
{ "type": "Feature", "properties": { "percent(t)": 142.5, "site": "Trippet Ranch, Topanga", "date": "2017-01-31T00:00:00" }, "geometry": { "type": "Point", "coordinates": [ -118.5977778, 34.09333333 ] } },
{ "type": "Feature", "properties": { "percent(t)": 84.66666667, "site": "D03_Gibson", "date": "2017-05-31T00:00:00" }, "geometry": { "type": "Point", "coordinates": [ -105.6005556, 38.13805556 ] } },
{ "type": "Feature", "properties": { "percent(t)": 126.6666667, "site": "HILL_Edwards_TX", "date": "2015-06-30T00:00:00" }, "geometry": { "type": "Point", "coordinates": [ -100.4730556, 29.60916667 ] } },
{ "type": "Feature", "properties": { "percent(t)": 60.66666667, "site": "Mt. Woodson Station", "date": "2016-10-31T00:00:00" }, "geometry": { "type": "Point", "coordinates": [ -116.9613889, 33.00277778 ] } },
{ "type": "Feature", "properties": { "percent(t)": 118.0, "site": "Quincy RD", "date": "2018-07-31T00:00:00" }, "geometry": { "type": "Point", "coordinates": [ -120.9419444, 39.97333333 ] } },
{ "type": "Feature", "properties": { "percent(t)": 177.0, "site": "SETX_Newt_TX", "date": "2018-12-31T00:00:00" }, "geometry": { "type": "Point", "coordinates": [ -93.82277778, 30.62833333 ] } },
{ "type": "Feature", "properties": { "percent(t)": 79.0, "site": "Panter", "date": "2017-10-31T00:00:00" }, "geometry": { "type": "Point", "coordinates": [ -117.5752778, 40.54638889 ] } },
{ "type": "Feature", "properties": { "percent(t)": 110.0, "site": "Jackson", "date": "2015-07-31T00:00:00" }, "geometry": { "type": "Point", "coordinates": [ -117.7680556, 42.21416667 ] } },
{ "type": "Feature", "properties": { "percent(t)": 66.0, "site": "Tyler Foote", "date": "2019-01-31T00:00:00" }, "geometry": { "type": "Point", "coordinates": [ -121.1122222, 39.33055556 ] } },
{ "type": "Feature", "properties": { "percent(t)": 65.33333333, "site": "Lopez Lake", "date": "2018-10-31T00:00:00" }, "geometry": { "type": "Point", "coordinates": [ -120.445, 35.19333333 ] } },
{ "type": "Feature", "properties": { "percent(t)": 91.5, "site": "CNTX_McCl_TX", "date": "2017-09-30T00:00:00" }, "geometry": { "type": "Point", "coordinates": [ -97.47, 31.33 ] } },
{ "type": "Feature", "properties": { "percent(t)": 97.75, "site": "Glendora Ridge, Glendora", "date": "2017-06-30T00:00:00" }, "geometry": { "type": "Point", "coordinates": [ -117.865, 34.16527778 ] } },
{ "type": "Feature", "properties": { "percent(t)": 166.0, "site": "SETX_SAug_TX", "date": "2017-01-31T00:00:00" }, "geometry": { "type": "Point", "coordinates": [ -94.09027778, 31.44166667 ] } },
{ "type": "Feature", "properties": { "percent(t)": 70.0, "site": "Mt. Woodson Station", "date": "2017-01-31T00:00:00" }, "geometry": { "type": "Point", "coordinates": [ -116.9613889, 33.00277778 ] } },
{ "type": "Feature", "properties": { "percent(t)": 119.0, "site": "McCloud (SHF)", "date": "2016-06-30T00:00:00" }, "geometry": { "type": "Point", "coordinates": [ -122.0544444, 41.29361111 ] } },
{ "type": "Feature", "properties": { "percent(t)": 106.0, "site": "HILL_Edwards2_TX", "date": "2018-05-31T00:00:00" }, "geometry": { "type": "Point", "coordinates": [ -100.5683333, 30.27138889 ] } },
{ "type": "Feature", "properties": { "percent(t)": 107.3333333, "site": "D03_Gibson", "date": "2016-10-31T00:00:00" }, "geometry": { "type": "Point", "coordinates": [ -105.6005556, 38.13805556 ] } },
{ "type": "Feature", "properties": { "percent(t)": 169.0, "site": "Sunset Heights", "date": "2017-05-31T00:00:00" }, "geometry": { "type": "Point", "coordinates": [ -113.8502778, 45.10916667 ] } },
{ "type": "Feature", "properties": { "percent(t)": 109.0, "site": "New Jungo", "date": "2016-06-30T00:00:00" }, "geometry": { "type": "Point", "coordinates": [ -117.8022222, 40.96833333 ] } },
{ "type": "Feature", "properties": { "percent(t)": 91.5, "site": "Shirttail", "date": "2018-10-31T00:00:00" }, "geometry": { "type": "Point", "coordinates": [ -117.4186111, 44.53 ] } },
{ "type": "Feature", "properties": { "percent(t)": 133.0, "site": "Hammett", "date": "2017-07-31T00:00:00" }, "geometry": { "type": "Point", "coordinates": [ -115.4569444, 42.96722222 ] } },
{ "type": "Feature", "properties": { "percent(t)": 68.0, "site": "Tapo Canyon, Simi Valley", "date": "2015-06-30T00:00:00" }, "geometry": { "type": "Point", "coordinates": [ -118.7102778, 34.30638889 ] } },
{ "type": "Feature", "properties": { "percent(t)": 152.0, "site": "SETX_Tylr_TX", "date": "2017-11-30T00:00:00" }, "geometry": { "type": "Point", "coordinates": [ -94.43111111, 30.73972222 ] } },
{ "type": "Feature", "properties": { "percent(t)": 113.5, "site": "Reader Ranch", "date": "2017-07-31T00:00:00" }, "geometry": { "type": "Point", "coordinates": [ -121.1097222, 39.30277778 ] } },
{ "type": "Feature", "properties": { "percent(t)": 206.0, "site": "Quincy RD", "date": "2016-06-30T00:00:00" }, "geometry": { "type": "Point", "coordinates": [ -120.9419444, 39.97333333 ] } },
{ "type": "Feature", "properties": { "percent(t)": 62.83333333, "site": "Reyes Creek", "date": "2017-08-31T00:00:00" }, "geometry": { "type": "Point", "coordinates": [ -119.3097222, 34.67833333 ] } },
{ "type": "Feature", "properties": { "percent(t)": 54.5, "site": "Glendora Ridge, Glendora", "date": "2016-10-31T00:00:00" }, "geometry": { "type": "Point", "coordinates": [ -117.865, 34.16527778 ] } },
{ "type": "Feature", "properties": { "percent(t)": 168.5, "site": "SETX_Newt_TX", "date": "2018-10-31T00:00:00" }, "geometry": { "type": "Point", "coordinates": [ -93.82277778, 30.62833333 ] } },
{ "type": "Feature", "properties": { "percent(t)": 59.0, "site": "Tapo Canyon, Simi Valley", "date": "2016-06-30T00:00:00" }, "geometry": { "type": "Point", "coordinates": [ -118.7102778, 34.30638889 ] } },
{ "type": "Feature", "properties": { "percent(t)": 57.5, "site": "Jackson", "date": "2018-09-30T00:00:00" }, "geometry": { "type": "Point", "coordinates": [ -117.7680556, 42.21416667 ] } },
{ "type": "Feature", "properties": { "percent(t)": 179.5, "site": "Balanced Rock", "date": "2017-06-30T00:00:00" }, "geometry": { "type": "Point", "coordinates": [ -115.0025, 42.48083333 ] } },
{ "type": "Feature", "properties": { "percent(t)": 78.0, "site": "Los Alamos", "date": "2016-01-31T00:00:00" }, "geometry": { "type": "Point", "coordinates": [ -118.8186111, 34.70138889 ] } },
{ "type": "Feature", "properties": { "percent(t)": 99.5, "site": "Pole Creek", "date": "2017-07-31T00:00:00" }, "geometry": { "type": "Point", "coordinates": [ -117.9438889, 43.80111111 ] } },
{ "type": "Feature", "properties": { "percent(t)": 124.0, "site": "Curlew", "date": "2017-08-31T00:00:00" }, "geometry": { "type": "Point", "coordinates": [ -112.5802778, 42.19611111 ] } },
{ "type": "Feature", "properties": { "percent(t)": 121.0, "site": "HILL_SanSaba_TX", "date": "2017-06-30T00:00:00" }, "geometry": { "type": "Point", "coordinates": [ -98.49944444, 31.05305556 ] } },
{ "type": "Feature", "properties": { "percent(t)": 75.33333333, "site": "San Marcos", "date": "2017-09-30T00:00:00" }, "geometry": { "type": "Point", "coordinates": [ -119.8055556, 34.51194444 ] } },
{ "type": "Feature", "properties": { "percent(t)": 60.5, "site": "Hastings Old Growth", "date": "2017-12-31T00:00:00" }, "geometry": { "type": "Point", "coordinates": [ -121.5502778, 36.38472222 ] } },
{ "type": "Feature", "properties": { "percent(t)": 66.66666667, "site": "Gifford", "date": "2015-12-31T00:00:00" }, "geometry": { "type": "Point", "coordinates": [ -120.0763889, 35.10888889 ] } },
{ "type": "Feature", "properties": { "percent(t)": 69.5, "site": "PNF Cherry", "date": "2017-11-30T00:00:00" }, "geometry": { "type": "Point", "coordinates": [ -112.0444444, 34.59194444 ] } },
{ "type": "Feature", "properties": { "percent(t)": 83.33333333, "site": "Cow Mountain", "date": "2016-06-30T00:00:00" }, "geometry": { "type": "Point", "coordinates": [ -123.1047222, 39.12833333 ] } },
{ "type": "Feature", "properties": { "percent(t)": 154.0, "site": "Juanita", "date": "2017-07-31T00:00:00" }, "geometry": { "type": "Point", "coordinates": [ -122.1097222, 41.80166667 ] } },
{ "type": "Feature", "properties": { "percent(t)": 123.4444444, "site": "Rose Valley", "date": "2016-04-30T00:00:00" }, "geometry": { "type": "Point", "coordinates": [ -119.1763889, 34.55055556 ] } },
{ "type": "Feature", "properties": { "percent(t)": 140.5, "site": "Shoshone Basin", "date": "2017-07-31T00:00:00" }, "geometry": { "type": "Point", "coordinates": [ -114.4922222, 42.18805556 ] } },
{ "type": "Feature", "properties": { "percent(t)": 94.0, "site": "McCoy Ridge", "date": "2015-07-31T00:00:00" },